GPS time,SatPRN,Sat.X,Sat.Y,Sat.Z,Pseudo-Range,CN0
# Raw,utcTimeMillis,TimeNanos,LeapSecond,TimeUncertaintyNanos,FullBiasNanos,BiasNanos
# UncalAccel,utcTimeMillis,elapsedRealtimeNanos,UncalAccelXMps2,UncalAccelYMps2,UncalAccelZMps2,BiasXMps2
# UncalGyro,utcTimeMillis,elapsedRealtimeNanos,UncalGyroXRadPerSec,UncalGyroYRadPerSec,UncalGyroZRadPerSec,DriftXRadPerSec
# UncalMag,utcTimeMillis,elapsedRealtimeNanos,UncalMagXMicroT,UncalMagYMicroT,UncalMagZMicroT,BiasXMicroT
# Fix,Provider,LatitudeDegrees,LongitudeDegrees,AltitudeMeters,SpeedMps,AccuracyMeters
# Nav,Svid,Type,Status,MessageId,Sub-messageId,Data(Bytes)
# Status,UnixTimeMillis,SignalCount,SignalIndex,ConstellationType,Svid,CarrierFrequencyHz
# Agc,utcTimeMillis,TimeNanos,LeapSecond,TimeUncertaintyNanos,FullBiasNanos,BiasNanos
Fix,FLP,32.1687672000,34.8133642000,45.30973453283714,0.057500154,4.165
Status,,62,0,1,3,1575420030
Status,,62,1,1,8,1575420030
Status,,62,2,1,10,1575420030
Status,,62,3,1,21,1575420030
Status,,62,4,1,27,1575420030
Status,,62,5,1,32,1575420030
Status,,62,6,2,123,1575420030
Status,,62,7,2,127,1575420030
Status,,62,8,3,95,1599187460
Status,,62,9,3,6,1599750020
Status,,62,10,3,5,1602562560
Status,,62,11,3,20,1603124990
Status,,62,12,3,21,1604249980
Status,,62,13,3,4,1605374980
Status,,62,14,5,60,1561097980
Status,,62,15,5,43,1561097980
Status,,62,16,5,42,1561097980
Status,,62,17,5,39,1561097980
Status,,62,18,5,34,1561097980
Status,,62,19,5,33,1561097980
Status,,62,20,5,21,1561097980
Status,,62,21,5,16,1561097980
Status,,62,22,5,14,1561097980
Status,,62,23,5,13,1561097980
Status,,62,24,5,12,1561097980
Status,,62,25,5,11,1561097980
Status,,62,26,5,9,1561097980
Status,,62,27,5,6,1561097980
Status,,62,28,5,5,1561097980
Status,,62,29,5,2,1561097980
Status,,62,30,6,4,1575420030
Status,,62,31,6,10,1575420030
Status,,62,32,6,11,1575420030
Status,,62,33,6,12,1575420030
Status,,62,34,6,19,1575420030
Status,,62,35,6,24,1575420030
Status,,62,36,6,33,1575420030
Status,,62,37,1,3,1176450050
Status,,62,38,1,8,1176450050
Status,,62,39,1,10,1176450050
Status,,62,40,1,27,1176450050
Status,,62,41,1,28,1176450050
Status,,62,42,1,32,1176450050
Status,,62,43,6,4,1176450050
Status,,62,44,6,10,1176450050
Status,,62,45,6,12,1176450050
Status,,62,46,6,19,1176450050
Status,,62,47,6,24,1176450050
Status,,62,48,6,33,1176450050
Status,,62,49,5,21,1176450050
Status,,62,50,5,33,1176450050
Status,,62,51,5,34,1176450050
Status,,62,52,5,39,1176450050
Status,,62,53,5,42,1176450050
Status,,62,54,5,43,1176450050
Status,,62,55,5,21,1575420030
Status,,62,56,5,33,1575420030
Status,,62,57,5,34,1575420030
Status,,62,58,5,39,1575420030
Status,,62,59,5,42,1575420030
Status,,62,60,5,43,1575420030
Status,,62,61,5,44,1575420030
Fix,GPS,32.1687625300,34.8133654300,46.262451171875,0.0,3.7900925
Raw,1713027213426,332431420000000,18,0.0,-1396730000006041643,-0.13524961471557617
Raw,1713027213426,332431420000000,18,0.0,-1396730000006041643,-0.13524961471557617
Raw,1713027213426,332431420000000,18,0.0,-1396730000006041643,-0.13524961471557617
Raw,1713027213426,332431420000000,18,0.0,-1396730000006041643,-0.13524961471557617
Raw,1713027213426,332431420000000,18,0.0,-1396730000006041643,-0.13524961471557617
Raw,1713027213426,332431420000000,18,0.0,-1396730000006041643,-0.13524961471557617
Raw,1713027213426,332431420000000,18,0.0,-1396730000006041643,-0.13524961471557617
Raw,1713027213426,332431420000000,18,0.0,-1396730000006041643,-0.13524961471557617
Raw,1713027213426,332431420000000,18,0.0,-1396730000006041643,-0.13524961471557617
Raw,1713027213426,332431420000000,18,0.0,-1396730000006041643,-0.13524961471557617
Raw,1713027213426,332431420000000,18,0.0,-1396730000006041643,-0.13524961471557617
Raw,1713027213426,332431420000000,18,0.0,-1396730000006041643,-0.13524961471557617
Raw,1713027213426,332431420000000,18,0.0,-1396730000006041643,-0.13524961471557617
Raw,1713027213426,332431420000000,18,0.0,-1396730000006041643,-0.13524961471557617
Raw,1713027213426,332431420000000,18,0.0,-1396730000006041643,-0.13524961471557617
Raw,1713027213426,332431420000000,18,0.0,-1396730000006041643,-0.13524961471557617
Raw,1713027213426,332431420000000,18,0.0,-1396730000006041643,-0.13524961471557617
Raw,1713027213426,332431420000000,18,0.0,-1396730000006041643,-0.13524961471557617
Raw,1713027213426,332431420000000,18,0.0,-1396730000006041643,-0.13524961471557617
Raw,1713027213426,332431420000000,18,0.0,-1396730000006041643,-0.13524961471557617
Raw,1713027213426,332431420000000,18,0.0,-1396730000006041643,-0.13524961471557617
Raw,1713027213426,332431420000000,18,0.0,-1396730000006041643,-0.13524961471557617
Raw,1713027213426,332431420000000,18,0.0,-1396730000006041643,-0.13524961471557617
Raw,1713027213426,332431420000000,18,0.0,-1396730000006041643,-0.13524961471557617
Raw,1713027213426,332431420000000,18,0.0,-1396730000006041643,-0.13524961471557617
Raw,1713027213426,332431420000000,18,0.0,-1396730000006041643,-0.13524961471557617
Raw,1713027213426,332431420000000,18,0.0,-1396730000006041643,-0.13524961471557617
Raw,1713027213426,332431420000000,18,0.0,-1396730000006041643,-0.13524961471557617
Raw,1713027213426,332431420000000,18,0.0,-1396730000006041643,-0.13524961471557617
Raw,1713027213426,332431420000000,18,0.0,-1396730000006041643,-0.13524961471557617
Raw,1713027213426,332431420000000,18,0.0,-1396730000006041643,-0.13524961471557617
Raw,1713027213426,332431420000000,18,0.0,-1396730000006041643,-0.13524961471557617
Raw,1713027213426,332431420000000,18,0.0,-1396730000006041643,-0.13524961471557617
Raw,1713027213426,332431420000000,18,0.0,-1396730000006041643,-0.13524961471557617
Raw,1713027213426,332431420000000,18,0.0,-1396730000006041643,-0.13524961471557617
Raw,1713027213426,332431420000000,18,0.0,-1396730000006041643,-0.13524961471557617
Raw,1713027213426,332431420000000,18,0.0,-1396730000006041643,-0.13524961471557617
Raw,1713027213426,332431420000000,18,0.0,-1396730000006041643,-0.13524961471557617
Raw,1713027213426,332431420000000,18,0.0,-1396730000006041643,-0.13524961471557617
Raw,1713027213426,332431420000000,18,0.0,-1396730000006041643,-0.13524961471557617
Raw,1713027213426,332431420000000,18,0.0,-1396730000006041643,-0.13524961471557617
Raw,1713027213426,332431420000000,18,0.0,-1396730000006041643,-0.13524961471557617
Raw,1713027213426,332431420000000,18,0.0,-1396730000006041643,-0.13524961471557617
Raw,1713027213426,332431420000000,18,0.0,-1396730000006041643,-0.13524961471557617
Raw,1713027213426,332431420000000,18,0.0,-1396730000006041643,-0.13524961471557617
Fix,FLP,32.1687686000,34.8133641000,45.38442414516535,0.06497167,4.142
Status,1713027214000,61,0,1,8,1575420030
Status,1713027214000,61,1,1,10,1575420030
Status,1713027214000,61,2,1,21,1575420030
Status,1713027214000,61,3,1,27,1575420030
Status,1713027214000,61,4,1,32,1575420030
Status,1713027214000,61,5,2,123,1575420030
Status,1713027214000,61,6,2,127,1575420030
Status,1713027214000,61,7,3,95,1599187460
Status,1713027214000,61,8,3,6,1599750020
Status,1713027214000,61,9,3,5,1602562560
Status,1713027214000,61,10,3,20,1603124990
Status,1713027214000,61,11,3,21,1604249980
Status,1713027214000,61,12,3,4,1605374980
Status,1713027214000,61,13,5,60,1561097980
Status,1713027214000,61,14,5,43,1561097980
Status,1713027214000,61,15,5,42,1561097980
Status,1713027214000,61,16,5,39,1561097980
Status,1713027214000,61,17,5,34,1561097980
Status,1713027214000,61,18,5,33,1561097980
Status,1713027214000,61,19,5,21,1561097980
Status,1713027214000,61,20,5,16,1561097980
Status,1713027214000,61,21,5,14,1561097980
Status,1713027214000,61,22,5,13,1561097980
Status,1713027214000,61,23,5,12,1561097980
Status,1713027214000,61,24,5,11,1561097980
Status,1713027214000,61,25,5,9,1561097980
Status,1713027214000,61,26,5,6,1561097980
Status,1713027214000,61,27,5,5,1561097980
Status,1713027214000,61,28,5,2,1561097980
Status,1713027214000,61,29,6,4,1575420030
Status,1713027214000,61,30,6,10,1575420030
Status,1713027214000,61,31,6,11,1575420030
Status,1713027214000,61,32,6,12,1575420030
Status,1713027214000,61,33,6,19,1575420030
Status,1713027214000,61,34,6,24,1575420030
Status,1713027214000,61,35,6,33,1575420030
Status,1713027214000,61,36,1,3,1176450050
Status,1713027214000,61,37,1,8,1176450050
Status,1713027214000,61,38,1,10,1176450050
Status,1713027214000,61,39,1,27,1176450050
Status,1713027214000,61,40,1,28,1176450050
Status,1713027214000,61,41,1,32,1176450050
Status,1713027214000,61,42,6,4,1176450050
Status,1713027214000,61,43,6,10,1176450050
Status,1713027214000,61,44,6,12,1176450050
Status,1713027214000,61,45,6,19,1176450050
Status,1713027214000,61,46,6,24,1176450050
Status,1713027214000,61,47,6,33,1176450050
Status,1713027214000,61,48,5,21,1176450050
Status,1713027214000,61,49,5,33,1176450050
Status,1713027214000,61,50,5,34,1176450050
Status,1713027214000,61,51,5,39,1176450050
Status,1713027214000,61,52,5,42,1176450050
Status,1713027214000,61,53,5,43,1176450050
Status,1713027214000,61,54,5,21,1575420030
Status,1713027214000,61,55,5,33,1575420030
Status,1713027214000,61,56,5,34,1575420030
Status,1713027214000,61,57,5,39,1575420030
Status,1713027214000,61,58,5,42,1575420030
Status,1713027214000,61,59,5,43,1575420030
Status,1713027214000,61,60,5,44,1575420030
Raw,1713027214426,332432420000000,18,0.0,-1396730000006041684,-0.9590837955474854
Raw,1713027214426,332432420000000,18,0.0,-1396730000006041684,-0.9590837955474854
Raw,1713027214426,332432420000000,18,0.0,-1396730000006041684,-0.9590837955474854
Raw,1713027214426,332432420000000,18,0.0,-1396730000006041684,-0.9590837955474854
Raw,1713027214426,332432420000000,18,0.0,-1396730000006041684,-0.9590837955474854
Raw,1713027214426,332432420000000,18,0.0,-1396730000006041684,-0.9590837955474854
Raw,1713027214426,332432420000000,18,0.0,-1396730000006041684,-0.9590837955474854
Raw,1713027214426,332432420000000,18,0.0,-1396730000006041684,-0.9590837955474854
Raw,1713027214426,332432420000000,18,0.0,-1396730000006041684,-0.9590837955474854
Raw,1713027214426,332432420000000,18,0.0,-1396730000006041684,-0.9590837955474854
Raw,1713027214426,332432420000000,18,0.0,-1396730000006041684,-0.9590837955474854
Raw,1713027214426,332432420000000,18,0.0,-1396730000006041684,-0.9590837955474854
Raw,1713027214426,332432420000000,18,0.0,-1396730000006041684,-0.9590837955474854
Raw,1713027214426,332432420000000,18,0.0,-1396730000006041684,-0.9590837955474854
Raw,1713027214426,332432420000000,18,0.0,-1396730000006041684,-0.9590837955474854
Raw,1713027214426,332432420000000,18,0.0,-1396730000006041684,-0.9590837955474854
Raw,1713027214426,332432420000000,18,0.0,-1396730000006041684,-0.9590837955474854
Raw,1713027214426,332432420000000,18,0.0,-1396730000006041684,-0.9590837955474854
Raw,1713027214426,332432420000000,18,0.0,-1396730000006041684,-0.9590837955474854
Raw,1713027214426,332432420000000,18,0.0,-1396730000006041684,-0.9590837955474854
Raw,1713027214426,332432420000000,18,0.0,-1396730000006041684,-0.9590837955474854
Raw,1713027214426,332432420000000,18,0.0,-1396730000006041684,-0.9590837955474854
Raw,1713027214426,332432420000000,18,0.0,-1396730000006041684,-0.9590837955474854
Raw,1713027214426,332432420000000,18,0.0,-1396730000006041684,-0.9590837955474854
Raw,1713027214426,332432420000000,18,0.0,-1396730000006041684,-0.9590837955474854
Raw,1713027214426,332432420000000,18,0.0,-1396730000006041684,-0.9590837955474854
Raw,1713027214426,332432420000000,18,0.0,-1396730000006041684,-0.9590837955474854
Raw,1713027214426,332432420000000,18,0.0,-1396730000006041684,-0.9590837955474854
Raw,1713027214426,332432420000000,18,0.0,-1396730000006041684,-0.9590837955474854
Raw,1713027214426,332432420000000,18,0.0,-1396730000006041684,-0.9590837955474854
Raw,1713027214426,332432420000000,18,0.0,-1396730000006041684,-0.9590837955474854
Raw,1713027214426,332432420000000,18,0.0,-1396730000006041684,-0.9590837955474854
Raw,1713027214426,332432420000000,18,0.0,-1396730000006041684,-0.9590837955474854
Raw,1713027214426,332432420000000,18,0.0,-1396730000006041684,-0.9590837955474854
Raw,1713027214426,332432420000000,18,0.0,-1396730000006041684,-0.9590837955474854
Raw,1713027214426,332432420000000,18,0.0,-1396730000006041684,-0.9590837955474854
Raw,1713027214426,332432420000000,18,0.0,-1396730000006041684,-0.9590837955474854
Raw,1713027214426,332432420000000,18,0.0,-1396730000006041684,-0.9590837955474854
Raw,1713027214426,332432420000000,18,0.0,-1396730000006041684,-0.9590837955474854
Raw,1713027214426,332432420000000,18,0.0,-1396730000006041684,-0.9590837955474854
Raw,1713027214426,332432420000000,18,0.0,-1396730000006041684,-0.9590837955474854
Raw,1713027214426,332432420000000,18,0.0,-1396730000006041684,-0.9590837955474854
Raw,1713027214426,332432420000000,18,0.0,-1396730000006041684,-0.9590837955474854
Raw,1713027214426,332432420000000,18,0.0,-1396730000006041684,-0.9590837955474854
Raw,1713027214426,332432420000000,18,0.0,-1396730000006041684,-0.9590837955474854
Raw,1713027214426,332432420000000,18,0.0,-1396730000006041684,-0.9590837955474854
Raw,1713027214426,332432420000000,18,0.0,-1396730000006041684,-0.9590837955474854
Raw,1713027214426,332432420000000,18,0.0,-1396730000006041684,-0.9590837955474854
Raw,1713027214426,332432420000000,18,0.0,-1396730000006041684,-0.9590837955474854
Fix,GPS,32.1687620900,34.8133666800,46.0872802734375,0.0,3.7900925
Fix,FLP,32.1687678000,34.8133635000,45.333404816814905,0.05275058,4.091
Status,1713027215000,62,0,1,2,1575420030
Status,1713027215000,62,1,1,8,1575420030
Status,1713027215000,62,2,1,10,1575420030
Status,1713027215000,62,3,1,21,1575420030
Status,1713027215000,62,4,1,27,1575420030
Status,1713027215000,62,5,1,32,1575420030
Status,1713027215000,62,6,2,123,1575420030
Status,1713027215000,62,7,2,127,1575420030
Status,1713027215000,62,8,3,95,1599187460
Status,1713027215000,62,9,3,6,1599750020
Status,1713027215000,62,10,3,5,1602562560
Status,1713027215000,62,11,3,20,1603124990
Status,1713027215000,62,12,3,21,1604249980
Status,1713027215000,62,13,3,4,1605374980
Status,1713027215000,62,14,5,60,1561097980
Status,1713027215000,62,15,5,43,1561097980
Status,1713027215000,62,16,5,42,1561097980
Status,1713027215000,62,17,5,39,1561097980
Status,1713027215000,62,18,5,34,1561097980
Status,1713027215000,62,19,5,33,1561097980
Status,1713027215000,62,20,5,21,1561097980
Status,1713027215000,62,21,5,16,1561097980
Status,1713027215000,62,22,5,14,1561097980
Status,1713027215000,62,23,5,13,1561097980
Status,1713027215000,62,24,5,12,1561097980
Status,1713027215000,62,25,5,11,1561097980
Status,1713027215000,62,26,5,9,1561097980
Status,1713027215000,62,27,5,6,1561097980
Status,1713027215000,62,28,5,5,1561097980
Status,1713027215000,62,29,5,2,1561097980
Status,1713027215000,62,30,6,4,1575420030
Status,1713027215000,62,31,6,10,1575420030
Status,1713027215000,62,32,6,11,1575420030
Status,1713027215000,62,33,6,12,1575420030
Status,1713027215000,62,34,6,19,1575420030
Status,1713027215000,62,35,6,24,1575420030
Status,1713027215000,62,36,6,33,1575420030
Status,1713027215000,62,37,1,3,1176450050
Status,1713027215000,62,38,1,8,1176450050
Status,1713027215000,62,39,1,10,1176450050
Status,1713027215000,62,40,1,27,1176450050
Status,1713027215000,62,41,1,28,1176450050
Status,1713027215000,62,42,1,32,1176450050
Status,1713027215000,62,43,6,4,1176450050
Status,1713027215000,62,44,6,10,1176450050
Status,1713027215000,62,45,6,12,1176450050
Status,1713027215000,62,46,6,19,1176450050
Status,1713027215000,62,47,6,24,1176450050
Status,1713027215000,62,48,6,33,1176450050
Status,1713027215000,62,49,5,21,1176450050
Status,1713027215000,62,50,5,33,1176450050
Status,1713027215000,62,51,5,34,1176450050
Status,1713027215000,62,52,5,39,1176450050
Status,1713027215000,62,53,5,42,1176450050
Status,1713027215000,62,54,5,43,1176450050
Status,1713027215000,62,55,5,21,1575420030
Status,1713027215000,62,56,5,33,1575420030
Status,1713027215000,62,57,5,34,1575420030
Status,1713027215000,62,58,5,39,1575420030
Status,1713027215000,62,59,5,42,1575420030
Status,1713027215000,62,60,5,43,1575420030
Status,1713027215000,62,61,5,44,1575420030
Raw,1713027215426,332433420000000,18,0.0,-1396730000006041703,-0.9915919303894043
Raw,1713027215426,332433420000000,18,0.0,-1396730000006041703,-0.9915919303894043
Raw,1713027215426,332433420000000,18,0.0,-1396730000006041703,-0.9915919303894043
Raw,1713027215426,332433420000000,18,0.0,-1396730000006041703,-0.9915919303894043
Raw,1713027215426,332433420000000,18,0.0,-1396730000006041703,-0.9915919303894043
Raw,1713027215426,332433420000000,18,0.0,-1396730000006041703,-0.9915919303894043
Raw,1713027215426,332433420000000,18,0.0,-1396730000006041703,-0.9915919303894043
Raw,1713027215426,332433420000000,18,0.0,-1396730000006041703,-0.9915919303894043
Raw,1713027215426,332433420000000,18,0.0,-1396730000006041703,-0.9915919303894043
Raw,1713027215426,332433420000000,18,0.0,-1396730000006041703,-0.9915919303894043
Raw,1713027215426,332433420000000,18,0.0,-1396730000006041703,-0.9915919303894043
Raw,1713027215426,332433420000000,18,0.0,-1396730000006041703,-0.9915919303894043
Raw,1713027215426,332433420000000,18,0.0,-1396730000006041703,-0.9915919303894043
Raw,1713027215426,332433420000000,18,0.0,-1396730000006041703,-0.9915919303894043
Raw,1713027215426,332433420000000,18,0.0,-1396730000006041703,-0.9915919303894043
Raw,1713027215426,332433420000000,18,0.0,-1396730000006041703,-0.9915919303894043
Raw,1713027215426,332433420000000,18,0.0,-1396730000006041703,-0.9915919303894043
Raw,1713027215426,332433420000000,18,0.0,-1396730000006041703,-0.9915919303894043
Raw,1713027215426,332433420000000,18,0.0,-1396730000006041703,-0.9915919303894043
Raw,1713027215426,332433420000000,18,0.0,-1396730000006041703,-0.9915919303894043
Raw,1713027215426,332433420000000,18,0.0,-1396730000006041703,-0.9915919303894043
Raw,1713027215426,332433420000000,18,0.0,-1396730000006041703,-0.9915919303894043
Raw,1713027215426,332433420000000,18,0.0,-1396730000006041703,-0.9915919303894043
Raw,1713027215426,332433420000000,18,0.0,-1396730000006041703,-0.9915919303894043
Raw,1713027215426,332433420000000,18,0.0,-1396730000006041703,-0.9915919303894043
Raw,1713027215426,332433420000000,18,0.0,-1396730000006041703,-0.9915919303894043
Raw,1713027215426,332433420000000,18,0.0,-1396730000006041703,-0.9915919303894043
Raw,1713027215426,332433420000000,18,0.0,-1396730000006041703,-0.9915919303894043
Raw,1713027215426,332433420000000,18,0.0,-1396730000006041703,-0.9915919303894043
Raw,1713027215426,332433420000000,18,0.0,-1396730000006041703,-0.9915919303894043
Raw,1713027215426,332433420000000,18,0.0,-1396730000006041703,-0.9915919303894043
Raw,1713027215426,332433420000000,18,0.0,-1396730000006041703,-0.9915919303894043
Raw,1713027215426,332433420000000,18,0.0,-1396730000006041703,-0.9915919303894043
Raw,1713027215426,332433420000000,18,0.0,-1396730000006041703,-0.9915919303894043
Raw,1713027215426,332433420000000,18,0.0,-1396730000006041703,-0.9915919303894043
Raw,1713027215426,332433420000000,18,0.0,-1396730000006041703,-0.9915919303894043
Raw,1713027215426,332433420000000,18,0.0,-1396730000006041703,-0.9915919303894043
Raw,1713027215426,332433420000000,18,0.0,-1396730000006041703,-0.9915919303894043
Raw,1713027215426,332433420000000,18,0.0,-1396730000006041703,-0.9915919303894043
Raw,1713027215426,332433420000000,18,0.0,-1396730000006041703,-0.9915919303894043
Raw,1713027215426,332433420000000,18,0.0,-1396730000006041703,-0.9915919303894043
Raw,1713027215426,332433420000000,18,0.0,-1396730000006041703,-0.9915919303894043
Raw,1713027215426,332433420000000,18,0.0,-1396730000006041703,-0.9915919303894043
Raw,1713027215426,332433420000000,18,0.0,-1396730000006041703,-0.9915919303894043
Raw,1713027215426,332433420000000,18,0.0,-1396730000006041703,-0.9915919303894043
Raw,1713027215426,332433420000000,18,0.0,-1396730000006041703,-0.9915919303894043
Raw,1713027215426,332433420000000,18,0.0,-1396730000006041703,-0.9915919303894043
Fix,GPS,32.1687618800,34.8133675500,46.04559326171875,0.0,3.7900925
Fix,FLP,32.1687674000,34.8133632000,44.8497568795843,0.08880397,4.081
Fix,NLP,32.1688392000,34.8134048000,13.199999809265137,,28.1
Fix,FLP,32.1687683000,34.8133639000,44.80078141621476,0.065544054,4.048
Status,1713027216000,62,0,1,2,1575420030
Status,1713027216000,62,1,1,8,1575420030
Status,1713027216000,62,2,1,10,1575420030
Status,1713027216000,62,3,1,21,1575420030
Status,1713027216000,62,4,1,27,1575420030
Status,1713027216000,62,5,1,32,1575420030
Status,1713027216000,62,6,2,123,1575420030
Status,1713027216000,62,7,2,127,1575420030
Status,1713027216000,62,8,3,95,1599187460
Status,1713027216000,62,9,3,6,1599750020
Status,1713027216000,62,10,3,5,1602562560
Status,1713027216000,62,11,3,20,1603124990
Status,1713027216000,62,12,3,21,1604249980
Status,1713027216000,62,13,3,4,1605374980
Status,1713027216000,62,14,5,60,1561097980
Status,1713027216000,62,15,5,43,1561097980
Status,1713027216000,62,16,5,42,1561097980
Status,1713027216000,62,17,5,39,1561097980
Status,1713027216000,62,18,5,34,1561097980
Status,1713027216000,62,19,5,33,1561097980
Status,1713027216000,62,20,5,21,1561097980
Status,1713027216000,62,21,5,16,1561097980
Status,1713027216000,62,22,5,14,1561097980
Status,1713027216000,62,23,5,13,1561097980
Status,1713027216000,62,24,5,12,1561097980
Status,1713027216000,62,25,5,11,1561097980
Status,1713027216000,62,26,5,9,1561097980
Status,1713027216000,62,27,5,6,1561097980
Status,1713027216000,62,28,5,5,1561097980
Status,1713027216000,62,29,5,2,1561097980
Status,1713027216000,62,30,6,4,1575420030
Status,1713027216000,62,31,6,10,1575420030
Status,1713027216000,62,32,6,11,1575420030
Status,1713027216000,62,33,6,12,1575420030
Status,1713027216000,62,34,6,19,1575420030
Status,1713027216000,62,35,6,24,1575420030
Status,1713027216000,62,36,6,33,1575420030
Status,1713027216000,62,37,1,3,1176450050
Status,1713027216000,62,38,1,8,1176450050
Status,1713027216000,62,39,1,10,1176450050
Status,1713027216000,62,40,1,27,1176450050
Status,1713027216000,62,41,1,28,1176450050
Status,1713027216000,62,42,1,32,1176450050
Status,1713027216000,62,43,6,4,1176450050
Status,1713027216000,62,44,6,10,1176450050
Status,1713027216000,62,45,6,12,1176450050
Status,1713027216000,62,46,6,19,1176450050
Status,1713027216000,62,47,6,24,1176450050
Status,1713027216000,62,48,6,33,1176450050
Status,1713027216000,62,49,5,21,1176450050
Status,1713027216000,62,50,5,33,1176450050
Status,1713027216000,62,51,5,34,1176450050
Status,1713027216000,62,52,5,39,1176450050
Status,1713027216000,62,53,5,42,1176450050
Status,1713027216000,62,54,5,43,1176450050
Status,1713027216000,62,55,5,21,1575420030
Status,1713027216000,62,56,5,33,1575420030
Status,1713027216000,62,57,5,34,1575420030
Status,1713027216000,62,58,5,39,1575420030
Status,1713027216000,62,59,5,42,1575420030
Status,1713027216000,62,60,5,43,1575420030
Status,1713027216000,62,61,5,44,1575420030
Fix,GPS,32.1687636900,34.8133731200,46.128662109375,0.48,3.7900925
Raw,1713027216426,332434420000000,18,0.0,-1396730000006041743,-0.7292635440826416
Raw,1713027216426,332434420000000,18,0.0,-1396730000006041743,-0.7292635440826416
Raw,1713027216426,332434420000000,18,0.0,-1396730000006041743,-0.7292635440826416
Raw,1713027216426,332434420000000,18,0.0,-1396730000006041743,-0.7292635440826416
Raw,1713027216426,332434420000000,18,0.0,-1396730000006041743,-0.7292635440826416
Raw,1713027216426,332434420000000,18,0.0,-1396730000006041743,-0.7292635440826416
Raw,1713027216426,332434420000000,18,0.0,-1396730000006041743,-0.7292635440826416
Raw,1713027216426,332434420000000,18,0.0,-1396730000006041743,-0.7292635440826416
Raw,1713027216426,332434420000000,18,0.0,-1396730000006041743,-0.7292635440826416
Raw,1713027216426,332434420000000,18,0.0,-1396730000006041743,-0.7292635440826416
Raw,1713027216426,332434420000000,18,0.0,-1396730000006041743,-0.7292635440826416
Raw,1713027216426,332434420000000,18,0.0,-1396730000006041743,-0.7292635440826416
Raw,1713027216426,332434420000000,18,0.0,-1396730000006041743,-0.7292635440826416
Raw,1713027216426,332434420000000,18,0.0,-1396730000006041743,-0.7292635440826416
Raw,1713027216426,332434420000000,18,0.0,-1396730000006041743,-0.7292635440826416
Raw,1713027216426,332434420000000,18,0.0,-1396730000006041743,-0.7292635440826416
Raw,1713027216426,332434420000000,18,0.0,-1396730000006041743,-0.7292635440826416
Raw,1713027216426,332434420000000,18,0.0,-1396730000006041743,-0.7292635440826416
Raw,1713027216426,332434420000000,18,0.0,-1396730000006041743,-0.7292635440826416
Raw,1713027216426,332434420000000,18,0.0,-1396730000006041743,-0.7292635440826416
Raw,1713027216426,332434420000000,18,0.0,-1396730000006041743,-0.7292635440826416
Raw,1713027216426,332434420000000,18,0.0,-1396730000006041743,-0.7292635440826416
Raw,1713027216426,332434420000000,18,0.0,-1396730000006041743,-0.7292635440826416
Raw,1713027216426,332434420000000,18,0.0,-1396730000006041743,-0.7292635440826416
Raw,1713027216426,332434420000000,18,0.0,-1396730000006041743,-0.7292635440826416
Raw,1713027216426,332434420000000,18,0.0,-1396730000006041743,-0.7292635440826416
Raw,1713027216426,332434420000000,18,0.0,-1396730000006041743,-0.7292635440826416
Raw,1713027216426,332434420000000,18,0.0,-1396730000006041743,-0.7292635440826416
Raw,1713027216426,332434420000000,18,0.0,-1396730000006041743,-0.7292635440826416
Raw,1713027216426,332434420000000,18,0.0,-1396730000006041743,-0.7292635440826416
Raw,1713027216426,332434420000000,18,0.0,-1396730000006041743,-0.7292635440826416
Raw,1713027216426,332434420000000,18,0.0,-1396730000006041743,-0.7292635440826416
Raw,1713027216426,332434420000000,18,0.0,-1396730000006041743,-0.7292635440826416
Raw,1713027216426,332434420000000,18,0.0,-1396730000006041743,-0.7292635440826416
Raw,1713027216426,332434420000000,18,0.0,-1396730000006041743,-0.7292635440826416
Raw,1713027216426,332434420000000,18,0.0,-1396730000006041743,-0.7292635440826416
Raw,1713027216426,332434420000000,18,0.0,-1396730000006041743,-0.7292635440826416
Raw,1713027216426,332434420000000,18,0.0,-1396730000006041743,-0.7292635440826416
Raw,1713027216426,332434420000000,18,0.0,-1396730000006041743,-0.7292635440826416
Raw,1713027216426,332434420000000,18,0.0,-1396730000006041743,-0.7292635440826416
Raw,1713027216426,332434420000000,18,0.0,-1396730000006041743,-0.7292635440826416
Raw,1713027216426,332434420000000,18,0.0,-1396730000006041743,-0.7292635440826416
Raw,1713027216426,332434420000000,18,0.0,-1396730000006041743,-0.7292635440826416
Raw,1713027216426,332434420000000,18,0.0,-1396730000006041743,-0.7292635440826416
Raw,1713027216426,332434420000000,18,0.0,-1396730000006041743,-0.7292635440826416
Raw,1713027216426,332434420000000,18,0.0,-1396730000006041743,-0.7292635440826416
Raw,1713027216426,332434420000000,18,0.0,-1396730000006041743,-0.7292635440826416
Raw,1713027216426,332434420000000,18,0.0,-1396730000006041743,-0.7292635440826416
Raw,1713027216426,332434420000000,18,0.0,-1396730000006041743,-0.7292635440826416
Raw,1713027216426,332434420000000,18,0.0,-1396730000006041743,-0.7292635440826416
Raw,1713027216426,332434420000000,18,0.0,-1396730000006041743,-0.7292635440826416
Raw,1713027216426,332434420000000,18,0.0,-1396730000006041743,-0.7292635440826416
Status,1713027217000,64,0,1,2,1575420030
Status,1713027217000,64,1,1,3,1575420030
Status,1713027217000,64,2,1,8,1575420030
Status,1713027217000,64,3,1,10,1575420030
Status,1713027217000,64,4,1,21,1575420030
Status,1713027217000,64,5,1,27,1575420030
Status,1713027217000,64,6,1,28,1575420030
Status,1713027217000,64,7,1,32,1575420030
Status,1713027217000,64,8,2,123,1575420030
Status,1713027217000,64,9,2,127,1575420030
Status,1713027217000,64,10,3,95,1599187460
Status,1713027217000,64,11,3,6,1599750020
Status,1713027217000,64,12,3,5,1602562560
Status,1713027217000,64,13,3,20,1603124990
Status,1713027217000,64,14,3,21,1604249980
Status,1713027217000,64,15,3,4,1605374980
Status,1713027217000,64,16,5,60,1561097980
Status,1713027217000,64,17,5,43,1561097980
Status,1713027217000,64,18,5,42,1561097980
Status,1713027217000,64,19,5,39,1561097980
Status,1713027217000,64,20,5,34,1561097980
Status,1713027217000,64,21,5,33,1561097980
Status,1713027217000,64,22,5,21,1561097980
Status,1713027217000,64,23,5,16,1561097980
Status,1713027217000,64,24,5,14,1561097980
Status,1713027217000,64,25,5,13,1561097980
Status,1713027217000,64,26,5,12,1561097980
Status,1713027217000,64,27,5,11,1561097980
Status,1713027217000,64,28,5,9,1561097980
Status,1713027217000,64,29,5,6,1561097980
Status,1713027217000,64,30,5,5,1561097980
Status,1713027217000,64,31,5,2,1561097980
Status,1713027217000,64,32,6,4,1575420030
Status,1713027217000,64,33,6,10,1575420030
Status,1713027217000,64,34,6,11,1575420030
Status,1713027217000,64,35,6,12,1575420030
Status,1713027217000,64,36,6,19,1575420030
Status,1713027217000,64,37,6,24,1575420030
Status,1713027217000,64,38,6,33,1575420030
Status,1713027217000,64,39,1,3,1176450050
Status,1713027217000,64,40,1,8,1176450050
Status,1713027217000,64,41,1,10,1176450050
Status,1713027217000,64,42,1,27,1176450050
Status,1713027217000,64,43,1,28,1176450050
Status,1713027217000,64,44,1,32,1176450050
Status,1713027217000,64,45,6,4,1176450050
Status,1713027217000,64,46,6,10,1176450050
Status,1713027217000,64,47,6,12,1176450050
Status,1713027217000,64,48,6,19,1176450050
Status,1713027217000,64,49,6,24,1176450050
Status,1713027217000,64,50,6,33,1176450050
Status,1713027217000,64,51,5,21,1176450050
Status,1713027217000,64,52,5,33,1176450050
Status,1713027217000,64,53,5,34,1176450050
Status,1713027217000,64,54,5,39,1176450050
Status,1713027217000,64,55,5,42,1176450050
Status,1713027217000,64,56,5,43,1176450050
Status,1713027217000,64,57,5,21,1575420030
Status,1713027217000,64,58,5,33,1575420030
Status,1713027217000,64,59,5,34,1575420030
Status,1713027217000,64,60,5,39,1575420030
Status,1713027217000,64,61,5,42,1575420030
Status,1713027217000,64,62,5,43,1575420030
Status,1713027217000,64,63,5,44,1575420030
Raw,1713027217426,332435420000000,18,0.0,-1396730000006041776,-0.19889378547668457
Raw,1713027217426,332435420000000,18,0.0,-1396730000006041776,-0.19889378547668457
Raw,1713027217426,332435420000000,18,0.0,-1396730000006041776,-0.19889378547668457
Raw,1713027217426,332435420000000,18,0.0,-1396730000006041776,-0.19889378547668457
Raw,1713027217426,332435420000000,18,0.0,-1396730000006041776,-0.19889378547668457
Raw,1713027217426,332435420000000,18,0.0,-1396730000006041776,-0.19889378547668457
Raw,1713027217426,332435420000000,18,0.0,-1396730000006041776,-0.19889378547668457
Raw,1713027217426,332435420000000,18,0.0,-1396730000006041776,-0.19889378547668457
Raw,1713027217426,332435420000000,18,0.0,-1396730000006041776,-0.19889378547668457
Raw,1713027217426,332435420000000,18,0.0,-1396730000006041776,-0.19889378547668457
Raw,1713027217426,332435420000000,18,0.0,-1396730000006041776,-0.19889378547668457
Raw,1713027217426,332435420000000,18,0.0,-1396730000006041776,-0.19889378547668457
Raw,1713027217426,332435420000000,18,0.0,-1396730000006041776,-0.19889378547668457
Raw,1713027217426,332435420000000,18,0.0,-1396730000006041776,-0.19889378547668457
Raw,1713027217426,332435420000000,18,0.0,-1396730000006041776,-0.19889378547668457
Raw,1713027217426,332435420000000,18,0.0,-1396730000006041776,-0.19889378547668457
Raw,1713027217426,332435420000000,18,0.0,-1396730000006041776,-0.19889378547668457
Raw,1713027217426,332435420000000,18,0.0,-1396730000006041776,-0.19889378547668457
Raw,1713027217426,332435420000000,18,0.0,-1396730000006041776,-0.19889378547668457
Raw,1713027217426,332435420000000,18,0.0,-1396730000006041776,-0.19889378547668457
Raw,1713027217426,332435420000000,18,0.0,-1396730000006041776,-0.19889378547668457
Raw,1713027217426,332435420000000,18,0.0,-1396730000006041776,-0.19889378547668457
Raw,1713027217426,332435420000000,18,0.0,-1396730000006041776,-0.19889378547668457
Raw,1713027217426,332435420000000,18,0.0,-1396730000006041776,-0.19889378547668457
Raw,1713027217426,332435420000000,18,0.0,-1396730000006041776,-0.19889378547668457
Raw,1713027217426,332435420000000,18,0.0,-1396730000006041776,-0.19889378547668457
Raw,1713027217426,332435420000000,18,0.0,-1396730000006041776,-0.19889378547668457
Raw,1713027217426,332435420000000,18,0.0,-1396730000006041776,-0.19889378547668457
Raw,1713027217426,332435420000000,18,0.0,-1396730000006041776,-0.19889378547668457
Raw,1713027217426,332435420000000,18,0.0,-1396730000006041776,-0.19889378547668457
Raw,1713027217426,332435420000000,18,0.0,-1396730000006041776,-0.19889378547668457
Raw,1713027217426,332435420000000,18,0.0,-1396730000006041776,-0.19889378547668457
Raw,1713027217426,332435420000000,18,0.0,-1396730000006041776,-0.19889378547668457
Raw,1713027217426,332435420000000,18,0.0,-1396730000006041776,-0.19889378547668457
Raw,1713027217426,332435420000000,18,0.0,-1396730000006041776,-0.19889378547668457
Raw,1713027217426,332435420000000,18,0.0,-1396730000006041776,-0.19889378547668457
Raw,1713027217426,332435420000000,18,0.0,-1396730000006041776,-0.19889378547668457
Raw,1713027217426,332435420000000,18,0.0,-1396730000006041776,-0.19889378547668457
Raw,1713027217426,332435420000000,18,0.0,-1396730000006041776,-0.19889378547668457
Raw,1713027217426,332435420000000,18,0.0,-1396730000006041776,-0.19889378547668457
Raw,1713027217426,332435420000000,18,0.0,-1396730000006041776,-0.19889378547668457
Raw,1713027217426,332435420000000,18,0.0,-1396730000006041776,-0.19889378547668457
Raw,1713027217426,332435420000000,18,0.0,-1396730000006041776,-0.19889378547668457
Raw,1713027217426,332435420000000,18,0.0,-1396730000006041776,-0.19889378547668457
Raw,1713027217426,332435420000000,18,0.0,-1396730000006041776,-0.19889378547668457
Raw,1713027217426,332435420000000,18,0.0,-1396730000006041776,-0.19889378547668457
Raw,1713027217426,332435420000000,18,0.0,-1396730000006041776,-0.19889378547668457
Raw,1713027217426,332435420000000,18,0.0,-1396730000006041776,-0.19889378547668457
Raw,1713027217426,332435420000000,18,0.0,-1396730000006041776,-0.19889378547668457
Raw,1713027217426,332435420000000,18,0.0,-1396730000006041776,-0.19889378547668457
Raw,1713027217426,332435420000000,18,0.0,-1396730000006041776,-0.19889378547668457
Raw,1713027217426,332435420000000,18,0.0,-1396730000006041776,-0.19889378547668457
Raw,1713027217426,332435420000000,18,0.0,-1396730000006041776,-0.19889378547668457
Raw,1713027217426,332435420000000,18,0.0,-1396730000006041776,-0.19889378547668457
Raw,1713027217426,332435420000000,18,0.0,-1396730000006041776,-0.19889378547668457
Fix,GPS,32.1687716700,34.8133851600,45.90814208984375,1.91,3.7900925
Fix,FLP,32.1687714000,34.8133658000,44.66486991584834,0.2642016,4.001
Status,1713027218000,64,0,1,2,1575420030
Status,1713027218000,64,1,1,8,1575420030
Status,1713027218000,64,2,1,10,1575420030
Status,1713027218000,64,3,1,21,1575420030
Status,1713027218000,64,4,1,27,1575420030
Status,1713027218000,64,5,1,28,1575420030
Status,1713027218000,64,6,1,32,1575420030
Status,1713027218000,64,7,2,123,1575420030
Status,1713027218000,64,8,2,127,1575420030
Status,1713027218000,64,9,3,95,1599187460
Status,1713027218000,64,10,3,6,1599750020
Status,1713027218000,64,11,3,5,1602562560
Status,1713027218000,64,12,3,20,1603124990
Status,1713027218000,64,13,3,21,1604249980
Status,1713027218000,64,14,3,4,1605374980
Status,1713027218000,64,15,5,60,1561097980
Status,1713027218000,64,16,5,44,1561097980
Status,1713027218000,64,17,5,43,1561097980
Status,1713027218000,64,18,5,42,1561097980
Status,1713027218000,64,19,5,39,1561097980
Status,1713027218000,64,20,5,34,1561097980
Status,1713027218000,64,21,5,33,1561097980
Status,1713027218000,64,22,5,21,1561097980
Status,1713027218000,64,23,5,16,1561097980
Status,1713027218000,64,24,5,14,1561097980
Status,1713027218000,64,25,5,13,1561097980
Status,1713027218000,64,26,5,12,1561097980
Status,1713027218000,64,27,5,11,1561097980
Status,1713027218000,64,28,5,9,1561097980
Status,1713027218000,64,29,5,6,1561097980
Status,1713027218000,64,30,5,5,1561097980
Status,1713027218000,64,31,5,2,1561097980
Status,1713027218000,64,32,6,4,1575420030
Status,1713027218000,64,33,6,10,1575420030
Status,1713027218000,64,34,6,11,1575420030
Status,1713027218000,64,35,6,12,1575420030
Status,1713027218000,64,36,6,19,1575420030
Status,1713027218000,64,37,6,24,1575420030
Status,1713027218000,64,38,6,33,1575420030
Status,1713027218000,64,39,1,3,1176450050
Status,1713027218000,64,40,1,8,1176450050
Status,1713027218000,64,41,1,10,1176450050
Status,1713027218000,64,42,1,27,1176450050
Status,1713027218000,64,43,1,28,1176450050
Status,1713027218000,64,44,1,32,1176450050
Status,1713027218000,64,45,6,4,1176450050
Status,1713027218000,64,46,6,10,1176450050
Status,1713027218000,64,47,6,12,1176450050
Status,1713027218000,64,48,6,19,1176450050
Status,1713027218000,64,49,6,24,1176450050
Status,1713027218000,64,50,6,33,1176450050
Status,1713027218000,64,51,5,21,1176450050
Status,1713027218000,64,52,5,33,1176450050
Status,1713027218000,64,53,5,34,1176450050
Status,1713027218000,64,54,5,39,1176450050
Status,1713027218000,64,55,5,42,1176450050
Status,1713027218000,64,56,5,43,1176450050
Status,1713027218000,64,57,5,21,1575420030
Status,1713027218000,64,58,5,33,1575420030
Status,1713027218000,64,59,5,34,1575420030
Status,1713027218000,64,60,5,39,1575420030
Status,1713027218000,64,61,5,42,1575420030
Status,1713027218000,64,62,5,43,1575420030
Status,1713027218000,64,63,5,44,1575420030
Fix,GPS,32.1687844100,34.8133948000,45.8896484375,1.67,3.7900925
Raw,1713027218426,332436420000000,18,0.0,-1396730000006041814,-0.0366673469543457
Raw,1713027218426,332436420000000,18,0.0,-1396730000006041814,-0.0366673469543457
Raw,1713027218426,332436420000000,18,0.0,-1396730000006041814,-0.0366673469543457
Raw,1713027218426,332436420000000,18,0.0,-1396730000006041814,-0.0366673469543457
Raw,1713027218426,332436420000000,18,0.0,-1396730000006041814,-0.0366673469543457
Raw,1713027218426,332436420000000,18,0.0,-1396730000006041814,-0.0366673469543457
Raw,1713027218426,332436420000000,18,0.0,-1396730000006041814,-0.0366673469543457
Raw,1713027218426,332436420000000,18,0.0,-1396730000006041814,-0.0366673469543457
Raw,1713027218426,332436420000000,18,0.0,-1396730000006041814,-0.0366673469543457
Raw,1713027218426,332436420000000,18,0.0,-1396730000006041814,-0.0366673469543457
Raw,1713027218426,332436420000000,18,0.0,-1396730000006041814,-0.0366673469543457
Raw,1713027218426,332436420000000,18,0.0,-1396730000006041814,-0.0366673469543457
Raw,1713027218426,332436420000000,18,0.0,-1396730000006041814,-0.0366673469543457
Raw,1713027218426,332436420000000,18,0.0,-1396730000006041814,-0.0366673469543457
Raw,1713027218426,332436420000000,18,0.0,-1396730000006041814,-0.0366673469543457
Raw,1713027218426,332436420000000,18,0.0,-1396730000006041814,-0.0366673469543457
Raw,1713027218426,332436420000000,18,0.0,-1396730000006041814,-0.0366673469543457
Raw,1713027218426,332436420000000,18,0.0,-1396730000006041814,-0.0366673469543457
Raw,1713027218426,332436420000000,18,0.0,-1396730000006041814,-0.0366673469543457
Raw,1713027218426,332436420000000,18,0.0,-1396730000006041814,-0.0366673469543457
Raw,1713027218426,332436420000000,18,0.0,-1396730000006041814,-0.0366673469543457
Raw,1713027218426,332436420000000,18,0.0,-1396730000006041814,-0.0366673469543457
Raw,1713027218426,332436420000000,18,0.0,-1396730000006041814,-0.0366673469543457
Raw,1713027218426,332436420000000,18,0.0,-1396730000006041814,-0.0366673469543457
Raw,1713027218426,332436420000000,18,0.0,-1396730000006041814,-0.0366673469543457
Raw,1713027218426,332436420000000,18,0.0,-1396730000006041814,-0.0366673469543457
Raw,1713027218426,332436420000000,18,0.0,-1396730000006041814,-0.0366673469543457
Raw,1713027218426,332436420000000,18,0.0,-1396730000006041814,-0.0366673469543457
Raw,1713027218426,332436420000000,18,0.0,-1396730000006041814,-0.0366673469543457
Raw,1713027218426,332436420000000,18,0.0,-1396730000006041814,-0.0366673469543457
Raw,1713027218426,332436420000000,18,0.0,-1396730000006041814,-0.0366673469543457
Raw,1713027218426,332436420000000,18,0.0,-1396730000006041814,-0.0366673469543457
Raw,1713027218426,332436420000000,18,0.0,-1396730000006041814,-0.0366673469543457
Raw,1713027218426,332436420000000,18,0.0,-1396730000006041814,-0.0366673469543457
Raw,1713027218426,332436420000000,18,0.0,-1396730000006041814,-0.0366673469543457
Raw,1713027218426,332436420000000,18,0.0,-1396730000006041814,-0.0366673469543457
Raw,1713027218426,332436420000000,18,0.0,-1396730000006041814,-0.0366673469543457
Raw,1713027218426,332436420000000,18,0.0,-1396730000006041814,-0.0366673469543457
Raw,1713027218426,332436420000000,18,0.0,-1396730000006041814,-0.0366673469543457
Raw,1713027218426,332436420000000,18,0.0,-1396730000006041814,-0.0366673469543457
Raw,1713027218426,332436420000000,18,0.0,-1396730000006041814,-0.0366673469543457
Raw,1713027218426,332436420000000,18,0.0,-1396730000006041814,-0.0366673469543457
Raw,1713027218426,332436420000000,18,0.0,-1396730000006041814,-0.0366673469543457
Raw,1713027218426,332436420000000,18,0.0,-1396730000006041814,-0.0366673469543457
Raw,1713027218426,332436420000000,18,0.0,-1396730000006041814,-0.0366673469543457
Raw,1713027218426,332436420000000,18,0.0,-1396730000006041814,-0.0366673469543457
Raw,1713027218426,332436420000000,18,0.0,-1396730000006041814,-0.0366673469543457
Raw,1713027218426,332436420000000,18,0.0,-1396730000006041814,-0.0366673469543457
Raw,1713027218426,332436420000000,18,0.0,-1396730000006041814,-0.0366673469543457
Raw,1713027218426,332436420000000,18,0.0,-1396730000006041814,-0.0366673469543457
Raw,1713027218426,332436420000000,18,0.0,-1396730000006041814,-0.0366673469543457
Raw,1713027218426,332436420000000,18,0.0,-1396730000006041814,-0.0366673469543457
Raw,1713027218426,332436420000000,18,0.0,-1396730000006041814,-0.0366673469543457
Raw,1713027218426,332436420000000,18,0.0,-1396730000006041814,-0.0366673469543457
Raw,1713027218426,332436420000000,18,0.0,-1396730000006041814,-0.0366673469543457
Raw,1713027218426,332436420000000,18,0.0,-1396730000006041814,-0.0366673469543457
Fix,FLP,32.1687697000,34.8133645000,44.67124992922746,0.11742517,4.038
Status,1713027219000,64,0,1,2,1575420030
Status,1713027219000,64,1,1,8,1575420030
Status,1713027219000,64,2,1,10,1575420030
Status,1713027219000,64,3,1,21,1575420030
Status,1713027219000,64,4,1,27,1575420030
Status,1713027219000,64,5,1,28,1575420030
Status,1713027219000,64,6,1,32,1575420030
Status,1713027219000,64,7,2,123,1575420030
Status,1713027219000,64,8,2,127,1575420030
Status,1713027219000,64,9,3,95,1599187460
Status,1713027219000,64,10,3,6,1599750020
Status,1713027219000,64,11,3,5,1602562560
Status,1713027219000,64,12,3,20,1603124990
Status,1713027219000,64,13,3,19,1603687550
Status,1713027219000,64,14,3,21,1604249980
Status,1713027219000,64,15,3,4,1605374980
Status,1713027219000,64,16,5,60,1561097980
Status,1713027219000,64,17,5,44,1561097980
Status,1713027219000,64,18,5,43,1561097980
Status,1713027219000,64,19,5,42,1561097980
Status,1713027219000,64,20,5,39,1561097980
Status,1713027219000,64,21,5,34,1561097980
Status,1713027219000,64,22,5,33,1561097980
Status,1713027219000,64,23,5,21,1561097980
Status,1713027219000,64,24,5,16,1561097980
Status,1713027219000,64,25,5,14,1561097980
Status,1713027219000,64,26,5,13,1561097980
Status,1713027219000,64,27,5,12,1561097980
Status,1713027219000,64,28,5,11,1561097980
Status,1713027219000,64,29,5,9,1561097980
Status,1713027219000,64,30,5,6,1561097980
Status,1713027219000,64,31,5,5,1561097980
Status,1713027219000,64,32,5,2,1561097980
Status,1713027219000,64,33,6,4,1575420030
Status,1713027219000,64,34,6,10,1575420030
Status,1713027219000,64,35,6,11,1575420030
Status,1713027219000,64,36,6,12,1575420030
Status,1713027219000,64,37,6,19,1575420030
Status,1713027219000,64,38,6,24,1575420030
Status,1713027219000,64,39,6,33,1575420030
Status,1713027219000,64,40,1,3,1176450050
Status,1713027219000,64,41,1,8,1176450050
Status,1713027219000,64,42,1,10,1176450050
Status,1713027219000,64,43,1,27,1176450050
Status,1713027219000,64,44,1,28,1176450050
Status,1713027219000,64,45,1,32,1176450050
Status,1713027219000,64,46,6,4,1176450050
Status,1713027219000,64,47,6,10,1176450050
Status,1713027219000,64,48,6,12,1176450050
Status,1713027219000,64,49,6,19,1176450050
Status,1713027219000,64,50,6,33,1176450050
Status,1713027219000,64,51,5,21,1176450050
Status,1713027219000,64,52,5,33,1176450050
Status,1713027219000,64,53,5,34,1176450050
Status,1713027219000,64,54,5,39,1176450050
Status,1713027219000,64,55,5,42,1176450050
Status,1713027219000,64,56,5,43,1176450050
Status,1713027219000,64,57,5,21,1575420030
Status,1713027219000,64,58,5,33,1575420030
Status,1713027219000,64,59,5,34,1575420030
Status,1713027219000,64,60,5,39,1575420030
Status,1713027219000,64,61,5,42,1575420030
Status,1713027219000,64,62,5,43,1575420030
Status,1713027219000,64,63,5,44,1575420030
Raw,1713027219426,332437420000000,18,0.0,-1396730000006041851,-0.3640761375427246
Raw,1713027219426,332437420000000,18,0.0,-1396730000006041851,-0.3640761375427246
Raw,1713027219426,332437420000000,18,0.0,-1396730000006041851,-0.3640761375427246
Raw,1713027219426,332437420000000,18,0.0,-1396730000006041851,-0.3640761375427246
Raw,1713027219426,332437420000000,18,0.0,-1396730000006041851,-0.3640761375427246
Raw,1713027219426,332437420000000,18,0.0,-1396730000006041851,-0.3640761375427246
Raw,1713027219426,332437420000000,18,0.0,-1396730000006041851,-0.3640761375427246
Raw,1713027219426,332437420000000,18,0.0,-1396730000006041851,-0.3640761375427246
Raw,1713027219426,332437420000000,18,0.0,-1396730000006041851,-0.3640761375427246
Raw,1713027219426,332437420000000,18,0.0,-1396730000006041851,-0.3640761375427246
Raw,1713027219426,332437420000000,18,0.0,-1396730000006041851,-0.3640761375427246
Raw,1713027219426,332437420000000,18,0.0,-1396730000006041851,-0.3640761375427246
Raw,1713027219426,332437420000000,18,0.0,-1396730000006041851,-0.3640761375427246
Raw,1713027219426,332437420000000,18,0.0,-1396730000006041851,-0.3640761375427246
Raw,1713027219426,332437420000000,18,0.0,-1396730000006041851,-0.3640761375427246
Raw,1713027219426,332437420000000,18,0.0,-1396730000006041851,-0.3640761375427246
Raw,1713027219426,332437420000000,18,0.0,-1396730000006041851,-0.3640761375427246
Raw,1713027219426,332437420000000,18,0.0,-1396730000006041851,-0.3640761375427246
Raw,1713027219426,332437420000000,18,0.0,-1396730000006041851,-0.3640761375427246
Raw,1713027219426,332437420000000,18,0.0,-1396730000006041851,-0.3640761375427246
Raw,1713027219426,332437420000000,18,0.0,-1396730000006041851,-0.3640761375427246
Raw,1713027219426,332437420000000,18,0.0,-1396730000006041851,-0.3640761375427246
Raw,1713027219426,332437420000000,18,0.0,-1396730000006041851,-0.3640761375427246
Raw,1713027219426,332437420000000,18,0.0,-1396730000006041851,-0.3640761375427246
Raw,1713027219426,332437420000000,18,0.0,-1396730000006041851,-0.3640761375427246
Raw,1713027219426,332437420000000,18,0.0,-1396730000006041851,-0.3640761375427246
Raw,1713027219426,332437420000000,18,0.0,-1396730000006041851,-0.3640761375427246
Raw,1713027219426,332437420000000,18,0.0,-1396730000006041851,-0.3640761375427246
Raw,1713027219426,332437420000000,18,0.0,-1396730000006041851,-0.3640761375427246
Raw,1713027219426,332437420000000,18,0.0,-1396730000006041851,-0.3640761375427246
Raw,1713027219426,332437420000000,18,0.0,-1396730000006041851,-0.3640761375427246
Raw,1713027219426,332437420000000,18,0.0,-1396730000006041851,-0.3640761375427246
Raw,1713027219426,332437420000000,18,0.0,-1396730000006041851,-0.3640761375427246
Raw,1713027219426,332437420000000,18,0.0,-1396730000006041851,-0.3640761375427246
Raw,1713027219426,332437420000000,18,0.0,-1396730000006041851,-0.3640761375427246
Raw,1713027219426,332437420000000,18,0.0,-1396730000006041851,-0.3640761375427246
Raw,1713027219426,332437420000000,18,0.0,-1396730000006041851,-0.3640761375427246
Raw,1713027219426,332437420000000,18,0.0,-1396730000006041851,-0.3640761375427246
Raw,1713027219426,332437420000000,18,0.0,-1396730000006041851,-0.3640761375427246
Raw,1713027219426,332437420000000,18,0.0,-1396730000006041851,-0.3640761375427246
Raw,1713027219426,332437420000000,18,0.0,-1396730000006041851,-0.3640761375427246
Raw,1713027219426,332437420000000,18,0.0,-1396730000006041851,-0.3640761375427246
Raw,1713027219426,332437420000000,18,0.0,-1396730000006041851,-0.3640761375427246
Raw,1713027219426,332437420000000,18,0.0,-1396730000006041851,-0.3640761375427246
Raw,1713027219426,332437420000000,18,0.0,-1396730000006041851,-0.3640761375427246
Raw,1713027219426,332437420000000,18,0.0,-1396730000006041851,-0.3640761375427246
Raw,1713027219426,332437420000000,18,0.0,-1396730000006041851,-0.3640761375427246
Raw,1713027219426,332437420000000,18,0.0,-1396730000006041851,-0.3640761375427246
Raw,1713027219426,332437420000000,18,0.0,-1396730000006041851,-0.3640761375427246
Raw,1713027219426,332437420000000,18,0.0,-1396730000006041851,-0.3640761375427246
Raw,1713027219426,332437420000000,18,0.0,-1396730000006041851,-0.3640761375427246
Raw,1713027219426,332437420000000,18,0.0,-1396730000006041851,-0.3640761375427246
Raw,1713027219426,332437420000000,18,0.0,-1396730000006041851,-0.3640761375427246
Raw,1713027219426,332437420000000,18,0.0,-1396730000006041851,-0.3640761375427246
Raw,1713027219426,332437420000000,18,0.0,-1396730000006041851,-0.3640761375427246
Fix,GPS,32.1687979800,34.8133976800,46.4217529296875,1.22,3.7900925
Fix,FLP,32.1687936000,34.8133923000,43.983256588114415,1.2199123,4.011
Status,1713027220000,66,0,1,2,1575420030
Status,1713027220000,66,1,1,3,1575420030
Status,1713027220000,66,2,1,8,1575420030
Status,1713027220000,66,3,1,10,1575420030
Status,1713027220000,66,4,1,21,1575420030
Status,1713027220000,66,5,1,27,1575420030
Status,1713027220000,66,6,1,28,1575420030
Status,1713027220000,66,7,1,32,1575420030
Status,1713027220000,66,8,2,123,1575420030
Status,1713027220000,66,9,2,127,1575420030
Status,1713027220000,66,10,3,95,1599187460
Status,1713027220000,66,11,3,6,1599750020
Status,1713027220000,66,12,3,5,1602562560
Status,1713027220000,66,13,3,20,1603124990
Status,1713027220000,66,14,3,19,1603687550
Status,1713027220000,66,15,3,21,1604249980
Status,1713027220000,66,16,3,4,1605374980
Status,1713027220000,66,17,5,60,1561097980
Status,1713027220000,66,18,5,44,1561097980
Status,1713027220000,66,19,5,43,1561097980
Status,1713027220000,66,20,5,42,1561097980
Status,1713027220000,66,21,5,39,1561097980
Status,1713027220000,66,22,5,34,1561097980
Status,1713027220000,66,23,5,33,1561097980
Status,1713027220000,66,24,5,21,1561097980
Status,1713027220000,66,25,5,16,1561097980
Status,1713027220000,66,26,5,14,1561097980
Status,1713027220000,66,27,5,13,1561097980
Status,1713027220000,66,28,5,12,1561097980
Status,1713027220000,66,29,5,11,1561097980
Status,1713027220000,66,30,5,9,1561097980
Status,1713027220000,66,31,5,6,1561097980
Status,1713027220000,66,32,5,5,1561097980
Status,1713027220000,66,33,5,2,1561097980
Status,1713027220000,66,34,6,4,1575420030
Status,1713027220000,66,35,6,10,1575420030
Status,1713027220000,66,36,6,11,1575420030
Status,1713027220000,66,37,6,12,1575420030
Status,1713027220000,66,38,6,19,1575420030
Status,1713027220000,66,39,6,24,1575420030
Status,1713027220000,66,40,6,33,1575420030
Status,1713027220000,66,41,1,3,1176450050
Status,1713027220000,66,42,1,8,1176450050
Status,1713027220000,66,43,1,10,1176450050
Status,1713027220000,66,44,1,27,1176450050
Status,1713027220000,66,45,1,28,1176450050
Status,1713027220000,66,46,1,32,1176450050
Status,1713027220000,66,47,6,4,1176450050
Status,1713027220000,66,48,6,10,1176450050
Status,1713027220000,66,49,6,12,1176450050
Status,1713027220000,66,50,6,19,1176450050
Status,1713027220000,66,51,6,24,1176450050
Status,1713027220000,66,52,6,33,1176450050
Status,1713027220000,66,53,5,21,1176450050
Status,1713027220000,66,54,5,33,1176450050
Status,1713027220000,66,55,5,34,1176450050
Status,1713027220000,66,56,5,39,1176450050
Status,1713027220000,66,57,5,42,1176450050
Status,1713027220000,66,58,5,43,1176450050
Status,1713027220000,66,59,5,21,1575420030
Status,1713027220000,66,60,5,33,1575420030
Status,1713027220000,66,61,5,34,1575420030
Status,1713027220000,66,62,5,39,1575420030
Status,1713027220000,66,63,5,42,1575420030
Status,1713027220000,66,64,5,43,1575420030
Status,1713027220000,66,65,5,44,1575420030
Raw,1713027220426,332438420000000,18,0.0,-1396730000006041877,-0.4336576461791992
Raw,1713027220426,332438420000000,18,0.0,-1396730000006041877,-0.4336576461791992
Raw,1713027220426,332438420000000,18,0.0,-1396730000006041877,-0.4336576461791992
Raw,1713027220426,332438420000000,18,0.0,-1396730000006041877,-0.4336576461791992
Raw,1713027220426,332438420000000,18,0.0,-1396730000006041877,-0.4336576461791992
Raw,1713027220426,332438420000000,18,0.0,-1396730000006041877,-0.4336576461791992
Raw,1713027220426,332438420000000,18,0.0,-1396730000006041877,-0.4336576461791992
Raw,1713027220426,332438420000000,18,0.0,-1396730000006041877,-0.4336576461791992
Raw,1713027220426,332438420000000,18,0.0,-1396730000006041877,-0.4336576461791992
Raw,1713027220426,332438420000000,18,0.0,-1396730000006041877,-0.4336576461791992
Raw,1713027220426,332438420000000,18,0.0,-1396730000006041877,-0.4336576461791992
Raw,1713027220426,332438420000000,18,0.0,-1396730000006041877,-0.4336576461791992
Raw,1713027220426,332438420000000,18,0.0,-1396730000006041877,-0.4336576461791992
Raw,1713027220426,332438420000000,18,0.0,-1396730000006041877,-0.4336576461791992
Raw,1713027220426,332438420000000,18,0.0,-1396730000006041877,-0.4336576461791992
Raw,1713027220426,332438420000000,18,0.0,-1396730000006041877,-0.4336576461791992
Raw,1713027220426,332438420000000,18,0.0,-1396730000006041877,-0.4336576461791992
Raw,1713027220426,332438420000000,18,0.0,-1396730000006041877,-0.4336576461791992
Raw,1713027220426,332438420000000,18,0.0,-1396730000006041877,-0.4336576461791992
Raw,1713027220426,332438420000000,18,0.0,-1396730000006041877,-0.4336576461791992
Raw,1713027220426,332438420000000,18,0.0,-1396730000006041877,-0.4336576461791992
Raw,1713027220426,332438420000000,18,0.0,-1396730000006041877,-0.4336576461791992
Raw,1713027220426,332438420000000,18,0.0,-1396730000006041877,-0.4336576461791992
Raw,1713027220426,332438420000000,18,0.0,-1396730000006041877,-0.4336576461791992
Raw,1713027220426,332438420000000,18,0.0,-1396730000006041877,-0.4336576461791992
Raw,1713027220426,332438420000000,18,0.0,-1396730000006041877,-0.4336576461791992
Raw,1713027220426,332438420000000,18,0.0,-1396730000006041877,-0.4336576461791992
Raw,1713027220426,332438420000000,18,0.0,-1396730000006041877,-0.4336576461791992
Raw,1713027220426,332438420000000,18,0.0,-1396730000006041877,-0.4336576461791992
Raw,1713027220426,332438420000000,18,0.0,-1396730000006041877,-0.4336576461791992
Raw,1713027220426,332438420000000,18,0.0,-1396730000006041877,-0.4336576461791992
Raw,1713027220426,332438420000000,18,0.0,-1396730000006041877,-0.4336576461791992
Raw,1713027220426,332438420000000,18,0.0,-1396730000006041877,-0.4336576461791992
Raw,1713027220426,332438420000000,18,0.0,-1396730000006041877,-0.4336576461791992
Raw,1713027220426,332438420000000,18,0.0,-1396730000006041877,-0.4336576461791992
Raw,1713027220426,332438420000000,18,0.0,-1396730000006041877,-0.4336576461791992
Raw,1713027220426,332438420000000,18,0.0,-1396730000006041877,-0.4336576461791992
Raw,1713027220426,332438420000000,18,0.0,-1396730000006041877,-0.4336576461791992
Raw,1713027220426,332438420000000,18,0.0,-1396730000006041877,-0.4336576461791992
Raw,1713027220426,332438420000000,18,0.0,-1396730000006041877,-0.4336576461791992
Raw,1713027220426,332438420000000,18,0.0,-1396730000006041877,-0.4336576461791992
Raw,1713027220426,332438420000000,18,0.0,-1396730000006041877,-0.4336576461791992
Raw,1713027220426,332438420000000,18,0.0,-1396730000006041877,-0.4336576461791992
Raw,1713027220426,332438420000000,18,0.0,-1396730000006041877,-0.4336576461791992
Raw,1713027220426,332438420000000,18,0.0,-1396730000006041877,-0.4336576461791992
Raw,1713027220426,332438420000000,18,0.0,-1396730000006041877,-0.4336576461791992
Raw,1713027220426,332438420000000,18,0.0,-1396730000006041877,-0.4336576461791992
Raw,1713027220426,332438420000000,18,0.0,-1396730000006041877,-0.4336576461791992
Raw,1713027220426,332438420000000,18,0.0,-1396730000006041877,-0.4336576461791992
Raw,1713027220426,332438420000000,18,0.0,-1396730000006041877,-0.4336576461791992
Raw,1713027220426,332438420000000,18,0.0,-1396730000006041877,-0.4336576461791992
Raw,1713027220426,332438420000000,18,0.0,-1396730000006041877,-0.4336576461791992
Raw,1713027220426,332438420000000,18,0.0,-1396730000006041877,-0.4336576461791992
Raw,1713027220426,332438420000000,18,0.0,-1396730000006041877,-0.4336576461791992
Raw,1713027220426,332438420000000,18,0.0,-1396730000006041877,-0.4336576461791992
Raw,1713027220426,332438420000000,18,0.0,-1396730000006041877,-0.4336576461791992
Raw,1713027220426,332438420000000,18,0.0,-1396730000006041877,-0.4336576461791992
Raw,1713027220426,332438420000000,18,0.0,-1396730000006041877,-0.4336576461791992
Fix,GPS,32.1688107600,34.8133934900,45.98333740234375,1.16,3.7900925
Fix,FLP,32.1688090000,34.8133938000,43.647899342588566,1.1596477,3.991
Status,1713027221000,67,0,1,2,1575420030
Status,1713027221000,67,1,1,3,1575420030
Status,1713027221000,67,2,1,8,1575420030
Status,1713027221000,67,3,1,10,1575420030
Status,1713027221000,67,4,1,21,1575420030
Status,1713027221000,67,5,1,27,1575420030
Status,1713027221000,67,6,1,28,1575420030
Status,1713027221000,67,7,1,32,1575420030
Status,1713027221000,67,8,2,123,1575420030
Status,1713027221000,67,9,2,127,1575420030
Status,1713027221000,67,10,3,95,1599187460
Status,1713027221000,67,11,3,6,1599750020
Status,1713027221000,67,12,3,5,1602562560
Status,1713027221000,67,13,3,20,1603124990
Status,1713027221000,67,14,3,19,1603687550
Status,1713027221000,67,15,3,21,1604249980
Status,1713027221000,67,16,3,4,1605374980
Status,1713027221000,67,17,5,60,1561097980
Status,1713027221000,67,18,5,44,1561097980
Status,1713027221000,67,19,5,43,1561097980
Status,1713027221000,67,20,5,42,1561097980
Status,1713027221000,67,21,5,39,1561097980
Status,1713027221000,67,22,5,34,1561097980
Status,1713027221000,67,23,5,33,1561097980
Status,1713027221000,67,24,5,21,1561097980
Status,1713027221000,67,25,5,16,1561097980
Status,1713027221000,67,26,5,14,1561097980
Status,1713027221000,67,27,5,13,1561097980
Status,1713027221000,67,28,5,12,1561097980
Status,1713027221000,67,29,5,11,1561097980
Status,1713027221000,67,30,5,9,1561097980
Status,1713027221000,67,31,5,6,1561097980
Status,1713027221000,67,32,5,5,1561097980
Status,1713027221000,67,33,5,2,1561097980
Status,1713027221000,67,34,6,4,1575420030
Status,1713027221000,67,35,6,10,1575420030
Status,1713027221000,67,36,6,11,1575420030
Status,1713027221000,67,37,6,12,1575420030
Status,1713027221000,67,38,6,19,1575420030
Status,1713027221000,67,39,6,24,1575420030
Status,1713027221000,67,40,6,33,1575420030
Status,1713027221000,67,41,1,3,1176450050
Status,1713027221000,67,42,1,8,1176450050
Status,1713027221000,67,43,1,10,1176450050
Status,1713027221000,67,44,1,27,1176450050
Status,1713027221000,67,45,1,28,1176450050
Status,1713027221000,67,46,1,32,1176450050
Status,1713027221000,67,47,6,4,1176450050
Status,1713027221000,67,48,6,10,1176450050
Status,1713027221000,67,49,6,12,1176450050
Status,1713027221000,67,50,6,19,1176450050
Status,1713027221000,67,51,6,24,1176450050
Status,1713027221000,67,52,6,33,1176450050
Status,1713027221000,67,53,5,21,1176450050
Status,1713027221000,67,54,5,33,1176450050
Status,1713027221000,67,55,5,34,1176450050
Status,1713027221000,67,56,5,39,1176450050
Status,1713027221000,67,57,5,42,1176450050
Status,1713027221000,67,58,5,43,1176450050
Status,1713027221000,67,59,5,44,1176450050
Status,1713027221000,67,60,5,21,1575420030
Status,1713027221000,67,61,5,33,1575420030
Status,1713027221000,67,62,5,34,1575420030
Status,1713027221000,67,63,5,39,1575420030
Status,1713027221000,67,64,5,42,1575420030
Status,1713027221000,67,65,5,43,1575420030
Status,1713027221000,67,66,5,44,1575420030
