# 
# Header Description:
# 
# Version: v3.0.6.4 Platform: 14 Manufacturer: samsung Model: SM-S906E
# 
# Raw,utcTimeMillis,TimeNanos,LeapSecond,TimeUncertaintyNanos,FullBiasNanos,BiasNanos,BiasUncertaintyNanos,DriftNanosPerSecond,DriftUncertaintyNanosPerSecond,HardwareClockDiscontinuityCount,Svid,TimeOffsetNanos,State,ReceivedSvTimeNanos,ReceivedSvTimeUncertaintyNanos,Cn0DbHz,PseudorangeRateMetersPerSecond,PseudorangeRateUncertaintyMetersPerSecond,AccumulatedDeltaRangeState,AccumulatedDeltaRangeMeters,AccumulatedDeltaRangeUncertaintyMeters,CarrierFrequencyHz,CarrierCycles,CarrierPhase,CarrierPhaseUncertainty,MultipathIndicator,SnrInDb,ConstellationType,AgcDb,BasebandCn0DbHz,FullInterSignalBiasNanos,FullInterSignalBiasUncertaintyNanos,SatelliteInterSignalBiasNanos,SatelliteInterSignalBiasUncertaintyNanos,CodeType,ChipsetElapsedRealtimeNanos
# 
# UncalAccel,utcTimeMillis,elapsedRealtimeNanos,UncalAccelXMps2,UncalAccelYMps2,UncalAccelZMps2,BiasXMps2,BiasYMps2,BiasZMps2
# 
# Accel,utcTimeMillis,elapsedRealtimeNanos,AccelXMps2,AccelYMps2,AccelZMps2
# 
# UncalGyro,utcTimeMillis,elapsedRealtimeNanos,UncalGyroXRadPerSec,UncalGyroYRadPerSec,UncalGyroZRadPerSec,DriftXRadPerSec,DriftYRadPerSec,DriftZRadPerSec
# 
# Gyro,utcTimeMillis,elapsedRealtimeNanos,GyroXRadPerSec,GyroYRadPerSec,GyroZRadPerSec
# 
# UncalMag,utcTimeMillis,elapsedRealtimeNanos,UncalMagXMicroT,UncalMagYMicroT,UncalMagZMicroT,BiasXMicroT,BiasYMicroT,BiasZMicroT
# 
# Mag,utcTimeMillis,elapsedRealtimeNanos,MagXMicroT,MagYMicroT,MagZMicroT
# 
# OrientationDeg,utcTimeMillis,elapsedRealtimeNanos,yawDeg,rollDeg,pitchDeg
# 
# Fix,Provider,LatitudeDegrees,LongitudeDegrees,AltitudeMeters,SpeedMps,AccuracyMeters,BearingDegrees,UnixTimeMillis,SpeedAccuracyMps,BearingAccuracyDegrees,elapsedRealtimeNanos,VerticalAccuracyMeters,MockLocation,NumberOfUsedSignals,VerticalSpeedAccuracyMps,SolutionType
# 
# Nav,Svid,Type,Status,MessageId,Sub-messageId,Data(Bytes)
# 
# Status,UnixTimeMillis,SignalCount,SignalIndex,ConstellationType,Svid,CarrierFrequencyHz,Cn0DbHz,AzimuthDegrees,ElevationDegrees,UsedInFix,HasAlmanacData,HasEphemerisData,BasebandCn0DbHz
# 
# Agc,utcTimeMillis,TimeNanos,LeapSecond,TimeUncertaintyNanos,FullBiasNanos,BiasNanos,BiasUncertaintyNanos,DriftNanosPerSecond,DriftUncertaintyNanosPerSecond,HardwareClockDiscontinuityCount,AgcDb,CarrierFrequencyHz,ConstellationType
# 
Fix,FLP,32.1204546000,35.0461663000,213.5,0.000018330431,10.889,,1715632513695,0.104120865,,418464627617480,2.578365,0,,,
Status,,40,0,1,4,1575420030,24.50,57.0,43.0,1,1,1,19.5
Status,,40,1,1,6,1575420030,18.30,266.0,34.0,1,1,0,13.3
Status,,40,2,1,7,1575420030,15.30,241.0,62.0,0,1,0,10.3
Status,,40,3,1,9,1575420030,26.30,348.0,59.0,1,1,1,21.3
Status,,40,4,1,11,1575420030,23.50,305.0,18.0,1,1,0,18.5
Status,,40,5,1,16,1575420030,26.40,63.0,25.0,1,1,1,21.4
Status,,40,6,1,20,1575420030,26.60,320.0,2.0,0,1,0,21.6
Status,,40,7,3,6,1599750020,19.20,353.0,49.0,1,1,0,14.2
Status,,40,8,3,22,1600312450,19.50,302.0,14.0,1,1,1,14.5
Status,,40,9,3,15,1602000000,27.80,34.0,27.0,1,1,1,22.8
Status,,40,10,3,5,1602562560,29.30,85.0,32.0,1,1,0,24.3
Status,,40,11,3,7,1604812540,32.30,312.0,12.0,1,1,1,27.3
Status,,40,12,5,60,1561097980,24.20,119.0,27.0,0,1,0,19.2
Status,,40,13,5,45,1561097980,28.20,48.0,36.0,1,1,0,23.2
Status,,40,14,5,42,1561097980,24.90,332.0,54.0,1,1,0,19.9
Status,,40,15,5,39,1561097980,18.00,53.0,5.0,1,1,0,13.0
Status,,40,16,5,33,1561097980,22.90,307.0,6.0,1,1,0,17.9
Status,,40,17,5,21,1561097980,30.80,85.0,58.0,1,1,0,25.8
Status,,40,18,5,14,1561097980,24.70,315.0,30.0,1,1,0,19.7
Status,,40,19,6,4,1575420030,24.20,62.0,40.0,1,1,0,19.2
Status,,40,20,6,9,1575420030,15.90,340.0,58.0,1,1,0,10.9
Status,,40,21,6,31,1575420030,18.70,124.0,41.0,1,1,0,13.7
Status,,40,22,6,34,1575420030,15.10,314.0,15.0,1,1,0,10.1
Status,,40,23,6,36,1575420030,13.60,262.0,37.0,0,1,0,8.6
Status,,40,24,1,4,1176450050,20.40,57.0,43.0,1,1,1,15.4
Status,,40,25,1,9,1176450050,22.70,348.0,59.0,1,1,1,17.7
Status,,40,26,1,11,1176450050,19.80,305.0,18.0,0,1,0,14.8
Status,,40,27,6,4,1176450050,14.10,62.0,40.0,0,1,0,9.1
Status,,40,28,6,9,1176450050,18.20,340.0,58.0,0,1,0,13.2
Status,,40,29,6,34,1176450050,19.10,314.0,15.0,1,1,0,14.1
Status,,40,30,5,21,1176450050,19.40,85.0,58.0,1,1,0,14.4
Status,,40,31,5,33,1176450050,21.50,307.0,6.0,0,1,0,16.5
Status,,40,32,5,42,1176450050,19.20,332.0,54.0,1,1,0,14.2
Status,,40,33,5,45,1176450050,19.40,48.0,36.0,1,1,0,14.4
Status,,40,34,5,21,1575420030,25.40,85.0,58.0,1,1,0,20.4
Status,,40,35,5,26,1575420030,22.30,149.0,73.0,1,1,0,17.3
Status,,40,36,5,33,1575420030,24.70,307.0,6.0,1,1,0,19.7
Status,,40,37,5,39,1575420030,14.50,53.0,5.0,0,1,0,9.5
Status,,40,38,5,42,1575420030,25.60,332.0,54.0,1,1,0,20.6
Status,,40,39,5,45,1575420030,21.20,48.0,36.0,1,1,0,16.2
Raw,1715632514409,414780100000000,18,0.0,-1399252952309854852,0.8733291625976562,34.88334914436564,0.3761361186305784,11.045094085367564,6,4,0.0,16399,160532337627131,53,29.5,255.70712280273438,0.8479999899864197,16,0.0,0.0,1575420030,,,,0,0.0,1,-54.01,24.5,0.0,0.0,,,C,418465028905553
Raw,1715632514409,414780100000000,18,0.0,-1399252952309854852,0.8733291625976562,34.88334914436564,0.3761361186305784,11.045094085367564,6,9,0.0,16399,160532340666856,40,31.3,-89.44754028320312,0.7534999847412109,16,0.0,0.0,1575420030,,,,0,0.0,1,-54.01,26.3,0.0,0.0,,,C,418465028905553
Raw,1715632514409,414780100000000,18,0.0,-1399252952309854852,0.8733291625976562,34.88334914436564,0.3761361186305784,11.045094085367564,6,16,0.0,16399,160532333471629,40,31.4,180.72189331054688,0.7339999675750732,16,0.0,0.0,1575420030,,,,0,0.0,1,-54.01,26.4,0.0,0.0,,,C,418465028905553
Raw,1715632514409,414780100000000,18,0.0,-1399252952309854852,0.8733291625976562,34.88334914436564,0.3761361186305784,11.045094085367564,6,20,0.0,16399,160532325034057,40,31.6,-673.6300659179688,0.7459999918937683,16,0.0,0.0,1575420030,,,,0,0.0,1,-54.01,26.6,0.0,0.0,,,C,418465028905553
Raw,1715632514409,414780100000000,18,0.0,-1399252952309854852,0.8733291625976562,34.88334914436564,0.3761361186305784,11.045094085367564,6,15,0.0,49359,84914336745119,35,31.8,621.5360107421875,0.7294999957084656,16,0.0,0.0,1602000000,,,,0,0.0,3,-56.05,27.8,3802.715576171875,21.7446346282959,,,C,418465028905553
Raw,1715632514409,414780100000000,18,0.0,-1399252952309854852,0.8733291625976562,34.88334914436564,0.3761361186305784,11.045094085367564,6,5,0.0,49359,84914338309887,27,33.3,290.61431884765625,0.6165000200271606,16,0.0,0.0,1602562560,,,,0,0.0,3,-56.05,29.299999999999997,3802.715576171875,21.7446346282959,,,C,418465028905553
Raw,1715632514409,414780100000000,18,0.0,-1399252952309854852,0.8733291625976562,34.88334914436564,0.3761361186305784,11.045094085367564,6,7,0.0,49359,84914331874872,19,36.3,-541.6832885742188,0.05223781615495682,16,0.0,0.0,1604812540,,,,0,0.0,3,-56.05,32.3,3802.715576171875,21.7446346282959,,,C,418465028905553
Raw,1715632514409,414780100000000,18,0.0,-1399252952309854852,0.8733291625976562,34.88334914436564,0.3761361186305784,11.045094085367564,6,45,0.0,16399,160518330790644,31,32.5,425.741943359375,0.6784999966621399,16,0.0,0.0,1561097980,,,,0,0.0,5,-61.98,28.2,-1527.4566650390625,17.017959594726562,,,I,418465028905553
Raw,1715632514409,414780100000000,18,0.0,-1399252952309854852,0.8733291625976562,34.88334914436564,0.3761361186305784,11.045094085367564,6,42,0.0,16399,160518334404860,53,29.2,-303.095947265625,0.8524999618530273,16,0.0,0.0,1561097980,,,,0,0.0,5,-61.98,24.9,-1527.4566650390625,17.017959594726562,,,I,418465028905553
Raw,1715632514409,414780100000000,18,0.0,-1399252952309854852,0.8733291625976562,34.88334914436564,0.3761361186305784,11.045094085367564,6,33,0.0,16399,160518320685009,70,27.2,-512.0733032226562,1.0234999656677246,16,0.0,0.0,1561097980,,,,0,0.0,5,-61.98,22.9,-1527.4566650390625,17.017959594726562,,,I,418465028905553
Raw,1715632514409,414780100000000,18,0.0,-1399252952309854852,0.8733291625976562,34.88334914436564,0.3761361186305784,11.045094085367564,6,21,0.0,16399,160518334421387,24,35.1,150.1294403076172,0.6753190159797668,16,0.0,0.0,1561097980,,,,0,0.0,5,-61.98,30.8,-1527.4566650390625,17.017959594726562,,,I,418465028905553
Raw,1715632514409,414780100000000,18,0.0,-1399252952309854852,0.8733291625976562,34.88334914436564,0.3761361186305784,11.045094085367564,6,14,0.0,16399,160518330249988,53,29.0,-454.36541748046875,0.8585000038146973,16,0.0,0.0,1561097980,,,,0,0.0,5,-61.98,24.7,-1527.4566650390625,17.017959594726562,,,I,418465028905553
Raw,1715632514409,414780100000000,18,0.0,-1399252952309854852,0.8733291625976562,34.88334914436564,0.3761361186305784,11.045094085367564,6,4,0.0,23567,160532325725277,53,28.5,210.93414306640625,0.15658068656921387,16,0.0,0.0,1575420030,,,,0,0.0,6,-57.8,24.2,-1453.9449462890625,18.31521224975586,,,C,418465028905553
Raw,1715632514409,414780100000000,18,0.0,-1399252952309854852,0.8733291625976562,34.88334914436564,0.3761361186305784,11.045094085367564,6,36,0.0,23567,160532325113340,181,17.9,244.77474975585938,10.506999969482422,16,0.0,0.0,1575420030,,,,0,0.0,6,-57.8,13.599999999999998,-1453.9449462890625,18.31521224975586,,,C,418465028905553
Raw,1715632514409,414780100000000,18,0.0,-1399252952309854852,0.8733291625976562,34.88334914436564,0.3761361186305784,11.045094085367564,6,4,0.0,81935,160532337634868,18,25.4,254.99368286132812,1.1769999265670776,16,0.0,0.0,1176450050,,,,0,0.0,1,-40.75,20.4,-7866.36328125,5.535512924194336,,,Q,418465028905553
Raw,1715632514409,414780100000000,18,0.0,-1399252952309854852,0.8733291625976562,34.88334914436564,0.3761361186305784,11.045094085367564,6,9,0.0,81935,160532340674777,14,27.7,-88.99868774414062,0.9815000295639038,16,0.0,0.0,1176450050,,,,0,0.0,1,-40.75,22.7,-7866.36328125,5.535512924194336,,,Q,418465028905553
Raw,1715632514409,414780100000000,18,0.0,-1399252952309854852,0.8733291625976562,34.88334914436564,0.3761361186305784,11.045094085367564,6,45,0.0,16399,160518330796953,20,23.9,426.7350158691406,2.136500120162964,16,0.0,0.0,1176450050,,,,0,0.0,5,-40.75,19.4,-7838.970703125,83.06660461425781,,,Q,418465028905553
Raw,1715632514409,414780100000000,18,0.0,-1399252952309854852,0.8733291625976562,34.88334914436564,0.3761361186305784,11.045094085367564,6,21,0.0,16399,160518334421301,10,32.4,150.1534423828125,0.12674328684806824,16,0.0,0.0,1575420030,,,,0,0.0,5,-57.8,25.4,-1451.3218994140625,82.1583480834961,,,P,418465028905553
Raw,1715632514409,414780100000000,18,0.0,-1399252952309854852,0.8733291625976562,34.88334914436564,0.3761361186305784,11.045094085367564,6,26,0.0,16399,160518337145169,14,29.3,-152.76776123046875,1.1469999551773071,16,0.0,0.0,1575420030,,,,0,0.0,5,-57.8,22.3,-1451.3218994140625,82.1583480834961,,,P,418465028905553
Raw,1715632514409,414780100000000,18,0.0,-1399252952309854852,0.8733291625976562,34.88334914436564,0.3761361186305784,11.045094085367564,6,33,0.0,16399,160518320684883,11,31.7,-512.2510986328125,0.17608067393302917,16,0.0,0.0,1575420030,,,,0,0.0,5,-57.8,24.7,-1451.3218994140625,82.1583480834961,,,P,418465028905553
Raw,1715632514409,414780100000000,18,0.0,-1399252952309854852,0.8733291625976562,34.88334914436564,0.3761361186305784,11.045094085367564,6,42,0.0,16399,160518334404781,10,32.6,-303.565185546875,0.12674328684806824,16,0.0,0.0,1575420030,,,,0,0.0,5,-57.8,25.6,-1451.3218994140625,82.1583480834961,,,P,418465028905553
Raw,1715632514409,414780100000000,18,0.0,-1399252952309854852,0.8733291625976562,34.88334914436564,0.3761361186305784,11.045094085367564,6,45,0.0,16399,160518330790586,16,28.2,425.6584167480469,1.2265000343322754,16,0.0,0.0,1575420030,,,,0,0.0,5,-57.8,21.2,-1451.3218994140625,82.1583480834961,,,P,418465028905553
Fix,GPS,32.1204546000,35.0461662800,210.373779296875,0.0,10.45296,,1715632515000,0.080318466,,418465618906178,2.7262838,0,,,
Fix,FLP,32.1204546000,35.0461663000,213.5,0.0000118209655,10.827,,1715632514686,0.080318466,,418465618906178,2.5763297,0,,,
Status,1715632515000,40,0,1,4,1575420030,28.90,57.0,43.0,1,1,1,23.9
Status,1715632515000,40,1,1,6,1575420030,18.30,266.0,34.0,0,1,0,13.3
Status,1715632515000,40,2,1,7,1575420030,15.30,241.0,62.0,0,1,0,10.3
Status,1715632515000,40,3,1,9,1575420030,27.80,348.0,59.0,1,1,1,22.8
Status,1715632515000,40,4,1,11,1575420030,27.20,305.0,18.0,1,1,0,22.2
Status,1715632515000,40,5,1,16,1575420030,26.30,63.0,25.0,1,1,1,21.3
Status,1715632515000,40,6,1,20,1575420030,27.20,320.0,2.0,0,1,0,22.2
Status,1715632515000,40,7,3,6,1599750020,18.10,353.0,49.0,1,1,0,13.1
Status,1715632515000,40,8,3,22,1600312450,23.40,302.0,14.0,1,1,1,18.4
Status,1715632515000,40,9,3,15,1602000000,27.00,34.0,27.0,1,1,1,22.0
Status,1715632515000,40,10,3,5,1602562560,30.30,85.0,32.0,1,1,0,25.3
Status,1715632515000,40,11,3,7,1604812540,31.70,312.0,12.0,1,1,1,26.7
Status,1715632515000,40,12,5,60,1561097980,24.20,119.0,27.0,0,1,0,19.2
Status,1715632515000,40,13,5,45,1561097980,25.10,48.0,36.0,1,1,0,20.1
Status,1715632515000,40,14,5,42,1561097980,24.90,332.0,54.0,1,1,0,19.9
Status,1715632515000,40,15,5,39,1561097980,18.00,53.0,5.0,1,1,0,13.0
Status,1715632515000,40,16,5,33,1561097980,22.90,307.0,6.0,1,1,0,17.9
Status,1715632515000,40,17,5,21,1561097980,30.90,85.0,58.0,1,1,0,25.9
Status,1715632515000,40,18,5,14,1561097980,24.40,315.0,30.0,1,1,0,19.4
Status,1715632515000,40,19,6,4,1575420030,22.50,62.0,40.0,1,1,0,17.5
Status,1715632515000,40,20,6,9,1575420030,15.90,340.0,58.0,1,1,0,10.9
Status,1715632515000,40,21,6,31,1575420030,19.20,124.0,41.0,1,1,0,14.2
Status,1715632515000,40,22,6,34,1575420030,15.10,314.0,15.0,1,1,0,10.1
Status,1715632515000,40,23,6,36,1575420030,13.60,262.0,37.0,1,1,0,8.6
Status,1715632515000,40,24,1,4,1176450050,23.00,57.0,43.0,1,1,1,18.0
Status,1715632515000,40,25,1,9,1176450050,22.70,348.0,59.0,1,1,1,17.7
Status,1715632515000,40,26,1,11,1176450050,19.80,305.0,18.0,0,1,0,14.8
Status,1715632515000,40,27,6,4,1176450050,14.10,62.0,40.0,0,1,0,9.1
Status,1715632515000,40,28,6,9,1176450050,18.20,340.0,58.0,0,1,0,13.2
Status,1715632515000,40,29,6,34,1176450050,19.10,314.0,15.0,1,1,0,14.1
Status,1715632515000,40,30,5,21,1176450050,17.60,85.0,58.0,1,1,0,12.6
Status,1715632515000,40,31,5,33,1176450050,17.30,307.0,6.0,0,1,0,12.3
Status,1715632515000,40,32,5,42,1176450050,19.00,332.0,54.0,1,1,0,14.0
Status,1715632515000,40,33,5,45,1176450050,19.40,48.0,36.0,1,1,0,14.4
Status,1715632515000,40,34,5,21,1575420030,24.70,85.0,58.0,1,1,0,19.7
Status,1715632515000,40,35,5,26,1575420030,22.30,149.0,73.0,1,1,0,17.3
Status,1715632515000,40,36,5,33,1575420030,25.00,307.0,6.0,1,1,0,20.0
Status,1715632515000,40,37,5,39,1575420030,14.50,53.0,5.0,0,1,0,9.5
Status,1715632515000,40,38,5,42,1575420030,24.90,332.0,54.0,1,1,0,19.9
Status,1715632515000,40,39,5,45,1575420030,22.00,48.0,36.0,1,1,0,17.0
Raw,1715632515409,414781100000000,18,0.0,-1399252952309854859,0.05021953582763672,36.54718238976784,-2.7587471194897106,11.137396525965535,6,4,0.0,16399,160533337626188,31,33.9,255.12673950195312,0.6180000305175781,16,0.0,0.0,1575420030,,,,0,0.0,1,-53.96,28.9,0.0,0.0,,,C,418466030484042
Raw,1715632515409,414781100000000,18,0.0,-1399252952309854859,0.05021953582763672,36.54718238976784,-2.7587471194897106,11.137396525965535,6,9,0.0,16399,160533340667187,35,32.8,-89.6568603515625,0.6934999823570251,16,0.0,0.0,1575420030,,,,0,0.0,1,-53.96,27.799999999999997,0.0,0.0,,,C,418466030484042
Raw,1715632515409,414781100000000,18,0.0,-1399252952309854859,0.05021953582763672,36.54718238976784,-2.7587471194897106,11.137396525965535,6,11,0.0,16399,160533329784229,35,32.2,-227.18209838867188,1.3700000047683716,16,0.0,0.0,1575420030,,,,0,0.0,1,-53.96,27.200000000000003,0.0,0.0,,,C,418466030484042
Raw,1715632515409,414781100000000,18,0.0,-1399252952309854859,0.05021953582763672,36.54718238976784,-2.7587471194897106,11.137396525965535,6,16,0.0,16399,160533333470965,40,31.3,181.33084106445312,0.7339999675750732,16,0.0,0.0,1575420030,,,,0,0.0,1,-53.96,26.3,0.0,0.0,,,C,418466030484042
Raw,1715632515409,414781100000000,18,0.0,-1399252952309854859,0.05021953582763672,36.54718238976784,-2.7587471194897106,11.137396525965535,6,20,0.0,16399,160533325036293,35,32.2,-674.239013671875,0.6859999895095825,16,0.0,0.0,1575420030,,,,0,0.0,1,-53.96,27.200000000000003,0.0,0.0,,,C,418466030484042
Raw,1715632515409,414781100000000,18,0.0,-1399252952309854859,0.05021953582763672,36.54718238976784,-2.7587471194897106,11.137396525965535,6,6,0.0,49359,84915341849794,122,22.1,-310.7928161621094,3.6680002212524414,16,0.0,0.0,1599750020,,,,0,0.0,3,-55.95,18.1,3802.705810546875,21.75090217590332,,,C,418466030484042
Raw,1715632515409,414781100000000,18,0.0,-1399252952309854859,0.05021953582763672,36.54718238976784,-2.7587471194897106,11.137396525965535,6,22,0.0,49359,84915332537921,61,27.4,74.1747817993164,1.7044999599456787,16,0.0,0.0,1600312450,,,,0,0.0,3,-55.95,23.4,3802.705810546875,21.75090217590332,,,C,418466030484042
Raw,1715632515409,414781100000000,18,0.0,-1399252952309854859,0.05021953582763672,36.54718238976784,-2.7587471194897106,11.137396525965535,6,15,0.0,49359,84915336742904,35,31.0,620.9278564453125,0.7294999957084656,16,0.0,0.0,1602000000,,,,0,0.0,3,-55.95,27.0,3802.705810546875,21.75090217590332,,,C,418466030484042
Raw,1715632515409,414781100000000,18,0.0,-1399252952309854859,0.05021953582763672,36.54718238976784,-2.7587471194897106,11.137396525965535,6,5,0.0,49359,84915338308898,24,34.3,289.4747619628906,0.09121602773666382,16,0.0,0.0,1602562560,,,,0,0.0,3,-55.95,30.299999999999997,3802.705810546875,21.75090217590332,,,C,418466030484042
Raw,1715632515409,414781100000000,18,0.0,-1399252952309854859,0.05021953582763672,36.54718238976784,-2.7587471194897106,11.137396525965535,6,7,0.0,49359,84915331876571,21,35.7,-542.2972412109375,0.07028350979089737,16,0.0,0.0,1604812540,,,,0,0.0,3,-55.95,31.700000000000003,3802.705810546875,21.75090217590332,,,C,418466030484042
Raw,1715632515409,414781100000000,18,0.0,-1399252952309854859,0.05021953582763672,36.54718238976784,-2.7587471194897106,11.137396525965535,6,45,0.0,16399,160519330789256,46,29.4,425.3674621582031,0.8585000038146973,16,0.0,0.0,1561097980,,,,0,0.0,5,-61.89,25.099999999999998,-1527.4566650390625,17.017959594726562,,,I,418466030484042
Raw,1715632515409,414781100000000,18,0.0,-1399252952309854859,0.05021953582763672,36.54718238976784,-2.7587471194897106,11.137396525965535,6,21,0.0,16399,160519334420867,24,35.2,149.51942443847656,0.6753190159797668,16,0.0,0.0,1561097980,,,,0,0.0,5,-61.89,30.900000000000002,-1527.4566650390625,17.017959594726562,,,I,418466030484042
Raw,1715632515409,414781100000000,18,0.0,-1399252952309854859,0.05021953582763672,36.54718238976784,-2.7587471194897106,11.137396525965535,6,14,0.0,16399,160519330251494,53,28.7,-454.9127502441406,0.9284999966621399,16,0.0,0.0,1561097980,,,,0,0.0,5,-61.89,24.4,-1527.4566650390625,17.017959594726562,,,I,418466030484042
Raw,1715632515409,414781100000000,18,0.0,-1399252952309854859,0.05021953582763672,36.54718238976784,-2.7587471194897106,11.137396525965535,6,4,0.0,23567,160533325724574,70,26.8,210.24595642089844,1.1169999837875366,16,0.0,0.0,1575420030,,,,0,0.0,6,-57.77,22.5,-1453.9449462890625,18.31521224975586,,,C,418466030484042
Raw,1715632515409,414781100000000,18,0.0,-1399252952309854859,0.05021953582763672,36.54718238976784,-2.7587471194897106,11.137396525965535,6,31,0.0,23567,160533326673263,106,23.5,-343.19464111328125,2.118500232696533,16,0.0,0.0,1575420030,,,,0,0.0,6,-57.77,19.2,-1453.9449462890625,18.31521224975586,,,C,418466030484042
Raw,1715632515409,414781100000000,18,0.0,-1399252952309854859,0.05021953582763672,36.54718238976784,-2.7587471194897106,11.137396525965535,6,4,0.0,81935,160533337634028,12,28.0,254.87899780273438,0.9269999861717224,16,0.0,0.0,1176450050,,,,0,0.0,1,-40.64,23.0,-7866.36328125,5.535656452178955,,,Q,418466030484042
Raw,1715632515409,414781100000000,18,0.0,-1399252952309854859,0.05021953582763672,36.54718238976784,-2.7587471194897106,11.137396525965535,6,21,0.0,16399,160519334427177,27,22.1,149.7879180908203,3.012500286102295,16,0.0,0.0,1176450050,,,,0,0.0,5,-40.64,17.6,-7838.970703125,86.08367156982422,,,Q,418466030484042
Raw,1715632515409,414781100000000,18,0.0,-1399252952309854859,0.05021953582763672,36.54718238976784,-2.7587471194897106,11.137396525965535,6,33,0.0,16399,160519320692890,27,21.8,-511.6819763183594,3.1414999961853027,16,0.0,0.0,1176450050,,,,0,0.0,5,-40.64,17.3,-7838.970703125,86.08367156982422,,,Q,418466030484042
Raw,1715632515409,414781100000000,18,0.0,-1399252952309854859,0.05021953582763672,36.54718238976784,-2.7587471194897106,11.137396525965535,6,42,0.0,16399,160519334412153,20,23.5,-303.83148193359375,2.1725001335144043,16,0.0,0.0,1176450050,,,,0,0.0,5,-40.64,19.0,-7838.970703125,86.08367156982422,,,Q,418466030484042
Raw,1715632515409,414781100000000,18,0.0,-1399252952309854859,0.05021953582763672,36.54718238976784,-2.7587471194897106,11.137396525965535,6,21,0.0,16399,160519334420821,11,31.7,149.56732177734375,0.1820806860923767,16,0.0,0.0,1575420030,,,,0,0.0,5,-57.77,24.7,-1451.32177734375,85.17593383789062,,,P,418466030484042
Raw,1715632515409,414781100000000,18,0.0,-1399252952309854859,0.05021953582763672,36.54718238976784,-2.7587471194897106,11.137396525965535,6,33,0.0,16399,160519320686611,10,32.0,-512.9415893554688,1.2625054121017456,16,0.0,0.0,1575420030,,,,0,0.0,5,-57.77,25.0,-1451.32177734375,85.17593383789062,,,P,418466030484042
Raw,1715632515409,414781100000000,18,0.0,-1399252952309854859,0.05021953582763672,36.54718238976784,-2.7587471194897106,11.137396525965535,6,42,0.0,16399,160519334405744,11,31.9,-304.18939208984375,0.7529616355895996,16,0.0,0.0,1575420030,,,,0,0.0,5,-57.77,24.9,-1451.32177734375,85.17593383789062,,,P,418466030484042
Raw,1715632515409,414781100000000,18,0.0,-1399252952309854859,0.05021953582763672,36.54718238976784,-2.7587471194897106,11.137396525965535,6,45,0.0,16399,160519330789077,14,29.0,425.6679382324219,1.1365000009536743,16,0.0,0.0,1575420030,,,,0,0.0,5,-57.77,22.0,-1451.32177734375,85.17593383789062,,,P,418466030484042
Fix,GPS,32.1204546000,35.0461662800,210.3746337890625,0.0,10.562129,,1715632516000,0.14412527,,418466620484875,2.895382,0,,,
Fix,FLP,32.1204546000,35.0461663000,213.5,0.000012138632,10.814,,1715632515688,0.14412527,,418466620484875,2.329092,0,,,
Status,1715632516000,41,0,1,4,1575420030,31.40,57.0,43.0,1,1,1,26.4
Status,1715632516000,41,1,1,6,1575420030,18.30,266.0,34.0,0,1,0,13.3
Status,1715632516000,41,2,1,7,1575420030,14.60,241.0,62.0,0,1,0,9.6
Status,1715632516000,41,3,1,9,1575420030,28.10,348.0,59.0,1,1,1,23.1
Status,1715632516000,41,4,1,11,1575420030,33.50,305.0,18.0,1,1,0,28.5
Status,1715632516000,41,5,1,16,1575420030,27.00,63.0,25.0,1,1,1,22.0
Status,1715632516000,41,6,1,20,1575420030,27.10,320.0,2.0,0,1,0,22.1
Status,1715632516000,41,7,3,6,1599750020,18.10,353.0,49.0,1,1,0,13.1
Status,1715632516000,41,8,3,22,1600312450,27.90,302.0,14.0,1,1,1,22.9
Status,1715632516000,41,9,3,15,1602000000,24.10,34.0,27.0,1,1,1,19.1
Status,1715632516000,41,10,3,5,1602562560,30.00,85.0,32.0,1,1,0,25.0
Status,1715632516000,41,11,3,7,1604812540,32.60,312.0,12.0,1,1,1,27.6
Status,1715632516000,41,12,5,60,1561097980,24.20,119.0,27.0,0,1,0,19.2
Status,1715632516000,41,13,5,45,1561097980,23.00,48.0,36.0,1,1,0,18.0
Status,1715632516000,41,14,5,42,1561097980,24.90,332.0,54.0,1,1,0,19.9
Status,1715632516000,41,15,5,39,1561097980,18.00,53.0,5.0,1,1,0,13.0
Status,1715632516000,41,16,5,33,1561097980,22.90,307.0,6.0,1,1,0,17.9
Status,1715632516000,41,17,5,26,1561097980,16.30,149.0,73.0,0,1,0,11.3
Status,1715632516000,41,18,5,21,1561097980,28.30,85.0,58.0,1,1,0,23.3
Status,1715632516000,41,19,5,14,1561097980,28.60,315.0,30.0,1,1,0,23.6
Status,1715632516000,41,20,6,4,1575420030,22.50,62.0,40.0,1,1,0,17.5
Status,1715632516000,41,21,6,9,1575420030,19.30,340.0,58.0,1,1,0,14.3
Status,1715632516000,41,22,6,31,1575420030,19.20,124.0,41.0,1,1,0,14.2
Status,1715632516000,41,23,6,34,1575420030,19.20,314.0,15.0,0,1,0,14.2
Status,1715632516000,41,24,6,36,1575420030,13.60,262.0,37.0,1,1,0,8.6
Status,1715632516000,41,25,1,4,1176450050,25.50,57.0,43.0,1,1,1,20.5
Status,1715632516000,41,26,1,9,1176450050,19.70,348.0,59.0,1,1,1,14.7
Status,1715632516000,41,27,1,11,1176450050,19.00,305.0,18.0,0,1,0,14.0
Status,1715632516000,41,28,6,4,1176450050,14.10,62.0,40.0,0,1,0,9.1
Status,1715632516000,41,29,6,9,1176450050,16.90,340.0,58.0,0,1,0,11.9
Status,1715632516000,41,30,6,34,1176450050,19.10,314.0,15.0,1,1,0,14.1
Status,1715632516000,41,31,5,21,1176450050,17.60,85.0,58.0,1,1,0,12.6
Status,1715632516000,41,32,5,33,1176450050,17.30,307.0,6.0,0,1,0,12.3
Status,1715632516000,41,33,5,42,1176450050,21.30,332.0,54.0,1,1,0,16.3
Status,1715632516000,41,34,5,45,1176450050,18.70,48.0,36.0,1,1,0,13.7
Status,1715632516000,41,35,5,21,1575420030,24.60,85.0,58.0,1,1,0,19.6
Status,1715632516000,41,36,5,26,1575420030,21.80,149.0,73.0,1,1,0,16.8
Status,1715632516000,41,37,5,33,1575420030,22.30,307.0,6.0,1,1,0,17.3
Status,1715632516000,41,38,5,39,1575420030,14.50,53.0,5.0,0,1,0,9.5
Status,1715632516000,41,39,5,42,1575420030,23.20,332.0,54.0,1,1,0,18.2
Status,1715632516000,41,40,5,45,1575420030,25.90,48.0,36.0,1,1,0,20.9
Raw,1715632516409,414782100000000,18,0.0,-1399252952309854860,0.5286788940429688,40.61570871272124,-4.663133009615585,13.019741861269095,6,4,0.0,16399,160534337625346,21,36.4,255.4050750732422,0.06209104508161545,16,0.0,0.0,1575420030,,,,0,0.0,1,-53.66,31.4,0.0,0.0,,,C,418467033206334
Raw,1715632516409,414782100000000,18,0.0,-1399252952309854860,0.5286788940429688,40.61570871272124,-4.663133009615585,13.019741861269095,6,7,0.0,16399,160534339275470,181,19.6,-194.5752716064453,10.085000991821289,16,0.0,0.0,1575420030,,,,0,0.0,1,-53.66,14.600000000000001,0.0,0.0,,,C,418467033206334
Raw,1715632516409,414782100000000,18,0.0,-1399252952309854860,0.5286788940429688,40.61570871272124,-4.663133009615585,13.019741861269095,6,9,0.0,16399,160534340667507,31,33.1,-89.20967864990234,0.643500030040741,16,0.0,0.0,1575420030,,,,0,0.0,1,-53.66,28.1,0.0,0.0,,,C,418467033206334
Raw,1715632516409,414782100000000,18,0.0,-1399252952309854860,0.5286788940429688,40.61570871272124,-4.663133009615585,13.019741861269095,6,11,0.0,16399,160534329785019,17,38.5,-226.73367309570312,0.045794375240802765,16,0.0,0.0,1575420030,,,,0,0.0,1,-53.66,33.5,0.0,0.0,,,C,418467033206334
Raw,1715632516409,414782100000000,18,0.0,-1399252952309854860,0.5286788940429688,40.61570871272124,-4.663133009615585,13.019741861269095,6,16,0.0,16399,160534333470365,35,32.0,181.0929718017578,0.6739999651908875,16,0.0,0.0,1575420030,,,,0,0.0,1,-53.66,27.0,0.0,0.0,,,C,418467033206334
Raw,1715632516409,414782100000000,18,0.0,-1399252952309854860,0.5286788940429688,40.61570871272124,-4.663133009615585,13.019741861269095,6,20,0.0,16399,160534325038519,35,32.1,-674.4197998046875,0.6859999895095825,16,0.0,0.0,1575420030,,,,0,0.0,1,-53.66,27.1,0.0,0.0,,,C,418467033206334
Raw,1715632516409,414782100000000,18,0.0,-1399252952309854860,0.5286788940429688,40.61570871272124,-4.663133009615585,13.019741861269095,6,22,0.0,49359,84916332537765,35,31.9,74.86791229248047,0.7354999780654907,16,0.0,0.0,1600312450,,,,0,0.0,3,-55.68,27.9,3802.72802734375,21.754932403564453,,,C,418467033206334
Raw,1715632516409,414782100000000,18,0.0,-1399252952309854860,0.5286788940429688,40.61570871272124,-4.663133009615585,13.019741861269095,6,15,0.0,49359,84916336740930,53,28.1,620.4974365234375,0.9194999933242798,16,0.0,0.0,1602000000,,,,0,0.0,3,-55.68,24.1,3802.72802734375,21.754932403564453,,,C,418467033206334
Raw,1715632516409,414782100000000,18,0.0,-1399252952309854860,0.5286788940429688,40.61570871272124,-4.663133009615585,13.019741861269095,6,5,0.0,49359,84916338307943,24,34.0,290.085693359375,2.336064338684082,16,0.0,0.0,1602562560,,,,0,0.0,3,-55.68,30.0,3802.72802734375,21.754932403564453,,,C,418467033206334
Raw,1715632516409,414782100000000,18,0.0,-1399252952309854860,0.5286788940429688,40.61570871272124,-4.663133009615585,13.019741861269095,6,7,0.0,49359,84916331878367,19,36.6,-541.7345581054688,0.6126630306243896,16,0.0,0.0,1604812540,,,,0,0.0,3,-55.68,32.6,3802.72802734375,21.754932403564453,,,C,418467033206334
Raw,1715632516409,414782100000000,18,0.0,-1399252952309854860,0.5286788940429688,40.61570871272124,-4.663133009615585,13.019741861269095,6,45,0.0,16399,160520330787759,61,27.3,425.5691223144531,1.0084999799728394,16,0.0,0.0,1561097980,,,,0,0.0,5,-61.54,23.0,-1527.4566650390625,17.017959594726562,,,I,418467033206334
Raw,1715632516409,414782100000000,18,0.0,-1399252952309854860,0.5286788940429688,40.61570871272124,-4.663133009615585,13.019741861269095,6,26,0.0,16399,160520337146272,159,20.6,-152.07608032226562,9.942000389099121,16,0.0,0.0,1561097980,,,,0,0.0,5,-61.54,16.3,-1527.4566650390625,17.017959594726562,,,I,418467033206334
Raw,1715632516409,414782100000000,18,0.0,-1399252952309854860,0.5286788940429688,40.61570871272124,-4.663133009615585,13.019741861269095,6,21,0.0,16399,160520334420345,31,32.6,149.43553161621094,0.67249995470047,16,0.0,0.0,1561097980,,,,0,0.0,5,-61.54,28.3,-1527.4566650390625,17.017959594726562,,,I,418467033206334
Raw,1715632516409,414782100000000,18,0.0,-1399252952309854860,0.5286788940429688,40.61570871272124,-4.663133009615585,13.019741861269095,6,14,0.0,16399,160520330252992,31,32.9,-454.7398986816406,0.6784999966621399,16,0.0,0.0,1561097980,,,,0,0.0,5,-61.54,28.599999999999998,-1527.4566650390625,17.017959594726562,,,I,418467033206334
Raw,1715632516409,414782100000000,18,0.0,-1399252952309854860,0.5286788940429688,40.61570871272124,-4.663133009615585,13.019741861269095,6,9,0.0,23567,160534329434484,106,23.6,-74.35725402832031,2.897000312805176,16,0.0,0.0,1575420030,,,,0,0.0,6,-57.48,19.3,-1453.9449462890625,18.31521224975586,,,C,418467033206334
Raw,1715632516409,414782100000000,18,0.0,-1399252952309854860,0.5286788940429688,40.61570871272124,-4.663133009615585,13.019741861269095,6,34,0.0,23567,160534318908597,106,23.5,-214.12794494628906,5.868500232696533,16,0.0,0.0,1575420030,,,,0,0.0,6,-57.48,19.2,-1453.9449462890625,18.31521224975586,,,C,418467033206334
Raw,1715632516409,414782100000000,18,0.0,-1399252952309854860,0.5286788940429688,40.61570871272124,-4.663133009615585,13.019741861269095,6,4,0.0,81935,160534337633165,10,30.5,255.37989807128906,0.086247518658638,16,0.0,0.0,1176450050,,,,0,0.0,1,-39.51,25.5,-7866.36328125,5.535799980163574,,,Q,418467033206334
Raw,1715632516409,414782100000000,18,0.0,-1399252952309854860,0.5286788940429688,40.61570871272124,-4.663133009615585,13.019741861269095,6,9,0.0,81935,160534340675381,20,24.7,-89.54656982421875,1.9615000486373901,16,0.0,0.0,1176450050,,,,0,0.0,1,-39.51,19.7,-7866.36328125,5.535799980163574,,,Q,418467033206334
Raw,1715632516409,414782100000000,18,0.0,-1399252952309854860,0.5286788940429688,40.61570871272124,-4.663133009615585,13.019741861269095,6,11,0.0,81935,160534329792826,20,24.0,-226.78421020507812,4.255000114440918,16,0.0,0.0,1176450050,,,,0,0.0,1,-39.51,19.0,-7866.36328125,5.535799980163574,,,Q,418467033206334
Raw,1715632516409,414782100000000,18,0.0,-1399252952309854860,0.5286788940429688,40.61570871272124,-4.663133009615585,13.019741861269095,6,9,0.0,81935,160534329440893,30,22.2,-74.04029083251953,3.695000171661377,16,0.0,0.0,1176450050,,,,0,0.0,6,-39.51,16.9,-7861.76708984375,95.42756652832031,,,Q,418467033206334
Raw,1715632516409,414782100000000,18,0.0,-1399252952309854860,0.5286788940429688,40.61570871272124,-4.663133009615585,13.019741861269095,6,42,0.0,16399,160520334413175,16,25.8,-303.66583251953125,1.2024999856948853,16,0.0,0.0,1176450050,,,,0,0.0,5,-39.51,21.3,-7839.001953125,93.8251953125,,,Q,418467033206334
Raw,1715632516409,414782100000000,18,0.0,-1399252952309854860,0.5286788940429688,40.61570871272124,-4.663133009615585,13.019741861269095,6,45,0.0,16399,160520330794116,23,23.2,425.8431396484375,2.136500120162964,16,0.0,0.0,1176450050,,,,0,0.0,5,-39.51,18.7,-7839.001953125,93.8251953125,,,Q,418467033206334
Raw,1715632516409,414782100000000,18,0.0,-1399252952309854860,0.5286788940429688,40.61570871272124,-4.663133009615585,13.019741861269095,6,21,0.0,16399,160520334420283,11,31.6,150.1929473876953,0.1820806860923767,16,0.0,0.0,1575420030,,,,0,0.0,5,-57.48,24.6,-1451.35302734375,92.91732788085938,,,P,418467033206334
Raw,1715632516409,414782100000000,18,0.0,-1399252952309854860,0.5286788940429688,40.61570871272124,-4.663133009615585,13.019741861269095,6,26,0.0,16399,160520337146232,16,28.8,-152.53941345214844,1.9269999265670776,16,0.0,0.0,1575420030,,,,0,0.0,5,-57.48,21.8,-1451.35302734375,92.91732788085938,,,P,418467033206334
Raw,1715632516409,414782100000000,18,0.0,-1399252952309854860,0.5286788940429688,40.61570871272124,-4.663133009615585,13.019741861269095,6,33,0.0,16399,160520320688327,14,29.3,-512.2420043945312,1.1365000009536743,16,0.0,0.0,1575420030,,,,0,0.0,5,-57.48,22.3,-1451.35302734375,92.91732788085938,,,P,418467033206334
Raw,1715632516409,414782100000000,18,0.0,-1399252952309854860,0.5286788940429688,40.61570871272124,-4.663133009615585,13.019741861269095,6,42,0.0,16399,160520334406821,12,30.2,-303.4898681640625,1.0625,16,0.0,0.0,1575420030,,,,0,0.0,5,-57.48,23.2,-1451.35302734375,92.91732788085938,,,P,418467033206334
Raw,1715632516409,414782100000000,18,0.0,-1399252952309854860,0.5286788940429688,40.61570871272124,-4.663133009615585,13.019741861269095,6,45,0.0,16399,160520330787720,10,32.9,426.05963134765625,0.1207432895898819,16,0.0,0.0,1575420030,,,,0,0.0,5,-57.48,25.9,-1451.35302734375,92.91732788085938,,,P,418467033206334
Fix,GPS,32.1204546000,35.0461662800,210.37823486328125,0.0,10.442494,,1715632517000,0.113919735,,418467623207686,2.7740262,0,,,
Fix,FLP,32.1204546000,35.0461663000,213.5,0.0000068300087,10.741,,1715632516691,0.113919735,,418467623207686,2.3692663,0,,,
Status,1715632517000,41,0,1,4,1575420030,27.40,57.0,43.0,1,1,1,22.4
Status,1715632517000,41,1,1,6,1575420030,18.30,266.0,34.0,0,1,0,13.3
Status,1715632517000,41,2,1,7,1575420030,14.60,241.0,62.0,1,1,0,9.6
Status,1715632517000,41,3,1,9,1575420030,27.80,348.0,59.0,1,1,1,22.8
Status,1715632517000,41,4,1,11,1575420030,34.90,305.0,18.0,1,1,0,29.9
Status,1715632517000,41,5,1,16,1575420030,27.50,63.0,25.0,1,1,1,22.5
Status,1715632517000,41,6,1,20,1575420030,25.40,320.0,2.0,0,1,0,20.4
Status,1715632517000,41,7,3,6,1599750020,21.10,353.0,49.0,1,1,0,16.1
Status,1715632517000,41,8,3,22,1600312450,25.00,302.0,14.0,1,1,1,20.0
Status,1715632517000,41,9,3,15,1602000000,24.30,34.0,27.0,1,1,1,19.3
Status,1715632517000,41,10,3,5,1602562560,29.30,85.0,32.0,1,1,0,24.3
Status,1715632517000,41,11,3,7,1604812540,32.10,312.0,12.0,1,1,1,27.1
Status,1715632517000,41,12,5,60,1561097980,24.20,119.0,27.0,0,1,0,19.2
Status,1715632517000,41,13,5,45,1561097980,26.10,48.0,36.0,1,1,0,21.1
Status,1715632517000,41,14,5,42,1561097980,19.80,332.0,54.0,1,1,0,14.8
Status,1715632517000,41,15,5,39,1561097980,18.00,53.0,5.0,1,1,0,13.0
Status,1715632517000,41,16,5,33,1561097980,22.90,307.0,6.0,1,1,0,17.9
Status,1715632517000,41,17,5,26,1561097980,16.30,149.0,73.0,0,1,0,11.3
Status,1715632517000,41,18,5,21,1561097980,27.30,85.0,58.0,1,1,0,22.3
Status,1715632517000,41,19,5,14,1561097980,28.50,315.0,30.0,1,1,0,23.5
Status,1715632517000,41,20,6,4,1575420030,22.50,62.0,40.0,1,1,0,17.5
Status,1715632517000,41,21,6,9,1575420030,19.30,340.0,58.0,1,1,0,14.3
Status,1715632517000,41,22,6,31,1575420030,19.20,124.0,41.0,1,1,0,14.2
Status,1715632517000,41,23,6,34,1575420030,27.20,314.0,15.0,1,1,0,22.2
Status,1715632517000,41,24,6,36,1575420030,13.60,262.0,37.0,1,1,0,8.6
Status,1715632517000,41,25,1,4,1176450050,24.80,57.0,43.0,1,1,1,19.8
Status,1715632517000,41,26,1,9,1176450050,19.70,348.0,59.0,1,1,1,14.7
Status,1715632517000,41,27,1,11,1176450050,24.50,305.0,18.0,0,1,0,19.5
Status,1715632517000,41,28,6,4,1176450050,14.10,62.0,40.0,0,1,0,9.1
Status,1715632517000,41,29,6,9,1176450050,21.20,340.0,58.0,0,1,0,16.2
Status,1715632517000,41,30,6,34,1176450050,17.50,314.0,15.0,1,1,0,12.5
Status,1715632517000,41,31,5,21,1176450050,17.60,85.0,58.0,1,1,0,12.6
Status,1715632517000,41,32,5,33,1176450050,17.30,307.0,6.0,0,1,0,12.3
Status,1715632517000,41,33,5,42,1176450050,21.30,332.0,54.0,1,1,0,16.3
Status,1715632517000,41,34,5,45,1176450050,18.70,48.0,36.0,1,1,0,13.7
Status,1715632517000,41,35,5,21,1575420030,23.50,85.0,58.0,1,1,0,18.5
Status,1715632517000,41,36,5,26,1575420030,21.80,149.0,73.0,1,1,0,16.8
Status,1715632517000,41,37,5,33,1575420030,22.30,307.0,6.0,1,1,0,17.3
Status,1715632517000,41,38,5,39,1575420030,14.50,53.0,5.0,0,1,0,9.5
Status,1715632517000,41,39,5,42,1575420030,23.20,332.0,54.0,1,1,0,18.2
Status,1715632517000,41,40,5,45,1575420030,22.20,48.0,36.0,1,1,0,17.2
Raw,1715632517409,414783100000000,18,0.0,-1399252952309854859,0.6909694671630859,39.87404488725588,-2.9216579885900513,14.28219681586721,6,4,0.0,16399,160535337624480,35,32.4,256.2399597167969,0.6679999828338623,16,0.0,0.0,1575420030,,,,0,0.0,1,-53.88,27.4,0.0,0.0,,,C,418468031326750
Raw,1715632517409,414783100000000,18,0.0,-1399252952309854859,0.6909694671630859,39.87404488725588,-2.9216579885900513,14.28219681586721,6,9,0.0,16399,160535340667823,35,32.8,-88.1630630493164,0.6934999823570251,16,0.0,0.0,1575420030,,,,0,0.0,1,-53.88,27.799999999999997,0.0,0.0,,,C,418468031326750
Raw,1715632517409,414783100000000,18,0.0,-1399252952309854859,0.6909694671630859,39.87404488725588,-2.9216579885900513,14.28219681586721,6,11,0.0,16399,160535329785752,16,39.9,-225.83514404296875,0.04440523311495781,16,0.0,0.0,1575420030,,,,0,0.0,1,-53.88,34.9,0.0,0.0,,,C,418468031326750
Raw,1715632517409,414783100000000,18,0.0,-1399252952309854859,0.6909694671630859,39.87404488725588,-2.9216579885900513,14.28219681586721,6,16,0.0,16399,160535333469731,35,32.5,182.5772705078125,0.6739999651908875,16,0.0,0.0,1575420030,,,,0,0.0,1,-53.88,27.5,0.0,0.0,,,C,418468031326750
Raw,1715632517409,414783100000000,18,0.0,-1399252952309854859,0.6909694671630859,39.87404488725588,-2.9216579885900513,14.28219681586721,6,20,0.0,16399,160535325040758,46,30.4,-673.4207763671875,0.8059999942779541,16,0.0,0.0,1575420030,,,,0,0.0,1,-53.88,25.4,0.0,0.0,,,C,418468031326750
Raw,1715632517409,414783100000000,18,0.0,-1399252952309854859,0.6909694671630859,39.87404488725588,-2.9216579885900513,14.28219681586721,6,6,0.0,49359,84917341851829,80,25.1,-310.5491943359375,1.8580000400543213,16,0.0,0.0,1599750020,,,,0,0.0,3,-55.89,21.1,3802.775390625,21.753952026367188,,,C,418468031326750
Raw,1715632517409,414783100000000,18,0.0,-1399252952309854859,0.6909694671630859,39.87404488725588,-2.9216579885900513,14.28219681586721,6,22,0.0,49359,84917332537463,46,29.0,75.89824676513672,0.8554999828338623,16,0.0,0.0,1600312450,,,,0,0.0,3,-55.89,25.0,3802.775390625,21.753952026367188,,,C,418468031326750
Raw,1715632517409,414783100000000,18,0.0,-1399252952309854859,0.6909694671630859,39.87404488725588,-2.9216579885900513,14.28219681586721,6,15,0.0,49359,84917336738985,53,28.3,622.3032836914062,0.9194999933242798,16,0.0,0.0,1602000000,,,,0,0.0,3,-55.89,24.3,3802.775390625,21.753952026367188,,,C,418468031326750
Raw,1715632517409,414783100000000,18,0.0,-1399252952309854859,0.6909694671630859,39.87404488725588,-2.9216579885900513,14.28219681586721,6,5,0.0,49359,84917338307000,27,33.3,291.2409973144531,0.6165000200271606,16,0.0,0.0,1602562560,,,,0,0.0,3,-55.89,29.299999999999997,3802.775390625,21.753952026367188,,,C,418468031326750
Raw,1715632517409,414783100000000,18,0.0,-1399252952309854859,0.6909694671630859,39.87404488725588,-2.9216579885900513,14.28219681586721,6,7,0.0,49359,84917331880238,19,36.1,-540.9666137695312,0.05223781615495682,16,0.0,0.0,1604812540,,,,0,0.0,3,-55.89,32.1,3802.775390625,21.753952026367188,,,C,418468031326750
Raw,1715632517409,414783100000000,18,0.0,-1399252952309854859,0.6909694671630859,39.87404488725588,-2.9216579885900513,14.28219681586721,6,45,0.0,16399,160521330786357,40,30.4,426.17401123046875,0.7985000014305115,16,0.0,0.0,1561097980,,,,0,0.0,5,-61.84,26.099999999999998,-1527.4566650390625,17.017959594726562,,,I,418468031326750
Raw,1715632517409,414783100000000,18,0.0,-1399252952309854859,0.6909694671630859,39.87404488725588,-2.9216579885900513,14.28219681586721,6,42,0.0,16399,160521334407859,106,24.1,-302.865478515625,2.7175002098083496,16,0.0,0.0,1561097980,,,,0,0.0,5,-61.84,19.8,-1527.4566650390625,17.017959594726562,,,I,418468031326750
Raw,1715632517409,414783100000000,18,0.0,-1399252952309854859,0.6909694671630859,39.87404488725588,-2.9216579885900513,14.28219681586721,6,21,0.0,16399,160521334419872,35,31.6,151.35592651367188,0.7324999570846558,16,0.0,0.0,1561097980,,,,0,0.0,5,-61.84,27.3,-1527.4566650390625,17.017959594726562,,,I,418468031326750
Raw,1715632517409,414783100000000,18,0.0,-1399252952309854859,0.6909694671630859,39.87404488725588,-2.9216579885900513,14.28219681586721,6,14,0.0,16399,160521330254503,31,32.8,-453.43408203125,0.6784999966621399,16,0.0,0.0,1561097980,,,,0,0.0,5,-61.84,28.499999999999996,-1527.4566650390625,17.017959594726562,,,I,418468031326750
Raw,1715632517409,414783100000000,18,0.0,-1399252952309854859,0.6909694671630859,39.87404488725588,-2.9216579885900513,14.28219681586721,6,34,0.0,23567,160535318909326,35,31.5,-213.23646545410156,0.043552231043577194,16,0.0,0.0,1575420030,,,,0,0.0,6,-57.67,27.2,-1453.9449462890625,18.31521224975586,,,C,418468031326750
Raw,1715632517409,414783100000000,18,0.0,-1399252952309854859,0.6909694671630859,39.87404488725588,-2.9216579885900513,14.28219681586721,6,4,0.0,81935,160535337632317,11,29.8,256.2860107421875,0.9248356223106384,16,0.0,0.0,1176450050,,,,0,0.0,1,-40.14,24.8,-7866.36328125,5.535943508148193,,,Q,418468031326750
Raw,1715632517409,414783100000000,18,0.0,-1399252952309854859,0.6909694671630859,39.87404488725588,-2.9216579885900513,14.28219681586721,6,11,0.0,81935,160535329793594,11,29.5,-225.8979949951172,0.1483515053987503,16,0.0,0.0,1176450050,,,,0,0.0,1,-40.14,24.5,-7866.36328125,5.535943508148193,,,Q,418468031326750
Raw,1715632517409,414783100000000,18,0.0,-1399252952309854859,0.6909694671630859,39.87404488725588,-2.9216579885900513,14.28219681586721,6,9,0.0,81935,160535329441139,16,26.5,-73.78546142578125,1.0749999284744263,16,0.0,0.0,1176450050,,,,0,0.0,6,-40.14,21.2,-7861.76708984375,94.3520736694336,,,Q,418468031326750
Raw,1715632517409,414783100000000,18,0.0,-1399252952309854859,0.6909694671630859,39.87404488725588,-2.9216579885900513,14.28219681586721,6,34,0.0,81935,160535318915718,27,22.8,-214.33587646484375,3.7685000896453857,16,0.0,0.0,1176450050,,,,0,0.0,6,-40.14,17.5,-7861.76708984375,94.3520736694336,,,Q,418468031326750
Raw,1715632517409,414783100000000,18,0.0,-1399252952309854859,0.6909694671630859,39.87404488725588,-2.9216579885900513,14.28219681586721,6,21,0.0,16399,160521334419796,12,30.5,151.13124084472656,1.0625,16,0.0,0.0,1575420030,,,,0,0.0,5,-57.67,23.5,-1451.35302734375,91.80003356933594,,,P,418468031326750
Raw,1715632517409,414783100000000,18,0.0,-1399252952309854859,0.6909694671630859,39.87404488725588,-2.9216579885900513,14.28219681586721,6,45,0.0,16399,160521330786285,14,29.2,426.6288757324219,1.1365000009536743,16,0.0,0.0,1575420030,,,,0,0.0,5,-57.67,22.2,-1451.35302734375,91.80003356933594,,,P,418468031326750
Fix,GPS,32.1204546000,35.0461662800,210.379638671875,0.0,10.390334,,1715632518000,0.075764425,,418468621327686,2.7686713,0,,,
Fix,FLP,32.1204546000,35.0461663000,213.5,0.0000028925067,10.69,,1715632517689,0.075764425,,418468621327686,2.501054,0,,,
Fix,NLP,32.1204556000,35.0461567000,212.79998779296875,,19.16,,1715632518347,,,418469279000000,1.6817235,0,,,
Fix,FLP,32.1204546000,35.0461663000,212.79998779296875,0.0000013786732,10.608,,1715632518347,1.5,,418469279000000,2.1383147,0,,,
Status,1715632518000,41,0,1,4,1575420030,26.80,57.0,43.0,1,1,1,21.8
Status,1715632518000,41,1,1,6,1575420030,18.30,266.0,34.0,0,1,0,13.3
Status,1715632518000,41,2,1,7,1575420030,14.60,241.0,62.0,1,1,0,9.6
Status,1715632518000,41,3,1,9,1575420030,27.60,348.0,59.0,1,1,1,22.6
Status,1715632518000,41,4,1,11,1575420030,35.80,305.0,18.0,1,1,0,30.8
Status,1715632518000,41,5,1,16,1575420030,27.30,63.0,25.0,1,1,1,22.3
Status,1715632518000,41,6,1,20,1575420030,22.70,320.0,2.0,0,1,0,17.7
Status,1715632518000,41,7,3,6,1599750020,21.10,353.0,49.0,1,1,0,16.1
Status,1715632518000,41,8,3,22,1600312450,22.60,302.0,14.0,1,1,1,17.6
Status,1715632518000,41,9,3,15,1602000000,27.00,34.0,27.0,1,1,1,22.0
Status,1715632518000,41,10,3,5,1602562560,28.40,85.0,32.0,1,1,0,23.4
Status,1715632518000,41,11,3,7,1604812540,33.60,312.0,12.0,1,1,1,28.6
Status,1715632518000,41,12,5,60,1561097980,24.20,119.0,27.0,0,1,0,19.2
Status,1715632518000,41,13,5,45,1561097980,23.70,48.0,36.0,1,1,0,18.7
Status,1715632518000,41,14,5,42,1561097980,26.20,332.0,54.0,1,1,0,21.2
Status,1715632518000,41,15,5,39,1561097980,18.00,53.0,5.0,1,1,0,13.0
Status,1715632518000,41,16,5,33,1561097980,19.20,307.0,6.0,1,1,0,14.2
Status,1715632518000,41,17,5,26,1561097980,16.30,149.0,73.0,0,1,0,11.3
Status,1715632518000,41,18,5,21,1561097980,27.40,85.0,58.0,1,1,0,22.4
Status,1715632518000,41,19,5,14,1561097980,28.90,315.0,30.0,1,1,0,23.9
Status,1715632518000,41,20,6,4,1575420030,22.50,62.0,40.0,1,1,0,17.5
Status,1715632518000,41,21,6,9,1575420030,19.30,340.0,58.0,1,1,0,14.3
Status,1715632518000,41,22,6,31,1575420030,19.20,124.0,41.0,1,1,0,14.2
Status,1715632518000,41,23,6,34,1575420030,24.00,314.0,15.0,1,1,0,19.0
Status,1715632518000,41,24,6,36,1575420030,13.60,262.0,37.0,1,1,0,8.6
Status,1715632518000,41,25,1,4,1176450050,22.90,57.0,43.0,1,1,1,17.9
Status,1715632518000,41,26,1,9,1176450050,19.70,348.0,59.0,1,1,1,14.7
Status,1715632518000,41,27,1,11,1176450050,25.10,305.0,18.0,1,1,0,20.1
Status,1715632518000,41,28,6,4,1176450050,14.10,62.0,40.0,0,1,0,9.1
Status,1715632518000,41,29,6,9,1176450050,21.20,340.0,58.0,1,1,0,16.2
Status,1715632518000,41,30,6,34,1176450050,17.50,314.0,15.0,1,1,0,12.5
Status,1715632518000,41,31,5,21,1176450050,17.60,85.0,58.0,1,1,0,12.6
Status,1715632518000,41,32,5,33,1176450050,17.30,307.0,6.0,0,1,0,12.3
Status,1715632518000,41,33,5,42,1176450050,18.90,332.0,54.0,1,1,0,13.9
Status,1715632518000,41,34,5,45,1176450050,18.70,48.0,36.0,1,1,0,13.7
Status,1715632518000,41,35,5,21,1575420030,22.30,85.0,58.0,1,1,0,17.3
Status,1715632518000,41,36,5,26,1575420030,19.70,149.0,73.0,1,1,0,14.7
Status,1715632518000,41,37,5,33,1575420030,21.50,307.0,6.0,1,1,0,16.5
Status,1715632518000,41,38,5,39,1575420030,14.50,53.0,5.0,0,1,0,9.5
Status,1715632518000,41,39,5,42,1575420030,23.30,332.0,54.0,1,1,0,18.3
Status,1715632518000,41,40,5,45,1575420030,25.30,48.0,36.0,1,1,0,20.3
Raw,1715632518409,414784100000000,18,0.0,-1399252952309854856,0.31357383728027344,37.97822500928305,0.2970979090680981,12.883512992748459,6,4,0.0,16399,160536337623627,40,31.8,256.7061462402344,0.7279999852180481,16,0.0,0.0,1575420030,,,,0,0.0,1,-53.66,26.8,0.0,0.0,,,C,418469035756906
Raw,1715632518409,414784100000000,18,0.0,-1399252952309854856,0.31357383728027344,37.97822500928305,0.2970979090680981,12.883512992748459,6,9,0.0,16399,160536340668095,35,32.6,-87.35430908203125,0.6934999823570251,16,0.0,0.0,1575420030,,,,0,0.0,1,-53.66,27.6,0.0,0.0,,,C,418469035756906
Raw,1715632518409,414784100000000,18,0.0,-1399252952309854856,0.31357383728027344,37.97822500928305,0.2970979090680981,12.883512992748459,6,11,0.0,16399,160536329786510,14,40.8,-225.5596923828125,0.03949565440416336,16,0.0,0.0,1575420030,,,,0,0.0,1,-53.66,35.8,0.0,0.0,,,C,418469035756906
Raw,1715632518409,414784100000000,18,0.0,-1399252952309854856,0.31357383728027344,37.97822500928305,0.2970979090680981,12.883512992748459,6,16,0.0,16399,160536333469132,35,32.3,182.88172912597656,0.6739999651908875,16,0.0,0.0,1575420030,,,,0,0.0,1,-53.66,27.299999999999997,0.0,0.0,,,C,418469035756906
Raw,1715632518409,414784100000000,18,0.0,-1399252952309854856,0.31357383728027344,37.97822500928305,0.2970979090680981,12.883512992748459,6,20,0.0,16399,160536325043056,70,27.7,-673.58251953125,1.0160000324249268,16,0.0,0.0,1575420030,,,,0,0.0,1,-53.66,22.7,0.0,0.0,,,C,418469035756906
Raw,1715632518409,414784100000000,18,0.0,-1399252952309854856,0.31357383728027344,37.97822500928305,0.2970979090680981,12.883512992748459,6,22,0.0,49359,84918332537299,70,26.6,76.75061798095703,1.0855000019073486,16,0.0,0.0,1600312450,,,,0,0.0,3,-55.66,22.6,3802.778564453125,21.757902145385742,,,C,418469035756906
Raw,1715632518409,414784100000000,18,0.0,-1399252952309854856,0.31357383728027344,37.97822500928305,0.2970979090680981,12.883512992748459,6,15,0.0,49359,84918336736763,35,31.0,622.75244140625,0.7294999957084656,16,0.0,0.0,1602000000,,,,0,0.0,3,-55.66,27.0,3802.778564453125,21.757902145385742,,,C,418469035756906
Raw,1715632518409,414784100000000,18,0.0,-1399252952309854856,0.31357383728027344,37.97822500928305,0.2970979090680981,12.883512992748459,6,5,0.0,49359,84918338306079,31,32.4,291.3158264160156,0.6664999723434448,16,0.0,0.0,1602562560,,,,0,0.0,3,-55.66,28.4,3802.778564453125,21.757902145385742,,,C,418469035756906
Raw,1715632518409,414784100000000,18,0.0,-1399252952309854856,0.31357383728027344,37.97822500928305,0.2970979090680981,12.883512992748459,6,7,0.0,49359,84918331881997,17,37.6,-540.8282470703125,0.04250509664416313,16,0.0,0.0,1604812540,,,,0,0.0,3,-55.66,33.6,3802.778564453125,21.757902145385742,,,C,418469035756906
Raw,1715632518409,414784100000000,18,0.0,-1399252952309854856,0.31357383728027344,37.97822500928305,0.2970979090680981,12.883512992748459,6,45,0.0,16399,160522330784973,61,28.0,427.0094299316406,0.9284999966621399,16,0.0,0.0,1561097980,,,,0,0.0,5,-61.54,23.7,-1527.4566650390625,17.017959594726562,,,I,418469035756906
Raw,1715632518409,414784100000000,18,0.0,-1399252952309854856,0.31357383728027344,37.97822500928305,0.2970979090680981,12.883512992748459,6,42,0.0,16399,160522334408924,40,30.5,-302.26055908203125,0.7924999594688416,16,0.0,0.0,1561097980,,,,0,0.0,5,-61.54,26.2,-1527.4566650390625,17.017959594726562,,,I,418469035756906
Raw,1715632518409,414784100000000,18,0.0,-1399252952309854856,0.31357383728027344,37.97822500928305,0.2970979090680981,12.883512992748459,6,33,0.0,16399,160522320691807,106,23.5,-511.8140869140625,3.5465002059936523,16,0.0,0.0,1561097980,,,,0,0.0,5,-61.54,19.2,-1527.4566650390625,17.017959594726562,,,I,418469035756906
Raw,1715632518409,414784100000000,18,0.0,-1399252952309854856,0.31357383728027344,37.97822500928305,0.2970979090680981,12.883512992748459,6,21,0.0,16399,160522334419329,35,31.7,151.3751220703125,0.7324999570846558,16,0.0,0.0,1561097980,,,,0,0.0,5,-61.54,27.4,-1527.4566650390625,17.017959594726562,,,I,418469035756906
Raw,1715632518409,414784100000000,18,0.0,-1399252952309854856,0.31357383728027344,37.97822500928305,0.2970979090680981,12.883512992748459,6,14,0.0,16399,160522330256013,31,33.2,-453.6836853027344,0.6285000443458557,16,0.0,0.0,1561097980,,,,0,0.0,5,-61.54,28.900000000000002,-1527.4566650390625,17.017959594726562,,,I,418469035756906
Raw,1715632518409,414784100000000,18,0.0,-1399252952309854856,0.31357383728027344,37.97822500928305,0.2970979090680981,12.883512992748459,6,34,0.0,23567,160536318910048,53,28.3,-212.95315551757812,3.1860172748565674,16,0.0,0.0,1575420030,,,,0,0.0,6,-57.45,24.0,-1453.9449462890625,18.31521224975586,,,C,418469035756906
Raw,1715632518409,414784100000000,18,0.0,-1399252952309854856,0.31357383728027344,37.97822500928305,0.2970979090680981,12.883512992748459,6,4,0.0,81935,160536337631463,14,27.9,256.6118469238281,1.0069999694824219,16,0.0,0.0,1176450050,,,,0,0.0,1,-39.75,22.9,-7866.36328125,5.536086559295654,,,Q,418469035756906
Raw,1715632518409,414784100000000,18,0.0,-1399252952309854856,0.31357383728027344,37.97822500928305,0.2970979090680981,12.883512992748459,6,11,0.0,81935,160536329794348,10,30.1,-225.59397888183594,0.838731586933136,16,0.0,0.0,1176450050,,,,0,0.0,1,-39.75,25.1,-7866.36328125,5.536086559295654,,,Q,418469035756906
Raw,1715632518409,414784100000000,18,0.0,-1399252952309854856,0.31357383728027344,37.97822500928305,0.2970979090680981,12.883512992748459,6,42,0.0,16399,160522334415187,23,23.4,-302.76116943359375,2.1125001907348633,16,0.0,0.0,1176450050,,,,0,0.0,5,-39.75,18.9,-7839.017578125,89.0169906616211,,,Q,418469035756906
Raw,1715632518409,414784100000000,18,0.0,-1399252952309854856,0.31357383728027344,37.97822500928305,0.2970979090680981,12.883512992748459,6,45,0.0,16399,160522330791268,23,23.2,426.83697509765625,2.136500120162964,16,0.0,0.0,1176450050,,,,0,0.0,5,-39.75,18.7,-7839.017578125,89.0169906616211,,,Q,418469035756906
Raw,1715632518409,414784100000000,18,0.0,-1399252952309854856,0.31357383728027344,37.97822500928305,0.2970979090680981,12.883512992748459,6,21,0.0,16399,160522334419277,14,29.3,151.17880249023438,1.1424999237060547,16,0.0,0.0,1575420030,,,,0,0.0,5,-57.45,22.3,-1451.36865234375,88.10932159423828,,,P,418469035756906
Raw,1715632518409,414784100000000,18,0.0,-1399252952309854856,0.31357383728027344,37.97822500928305,0.2970979090680981,12.883512992748459,6,26,0.0,16399,160522337147247,20,26.7,-151.321533203125,2.1069998741149902,16,0.0,0.0,1575420030,,,,0,0.0,5,-57.45,19.7,-1451.36865234375,88.10932159423828,,,P,418469035756906
Raw,1715632518409,414784100000000,18,0.0,-1399252952309854856,0.31357383728027344,37.97822500928305,0.2970979090680981,12.883512992748459,6,33,0.0,16399,160522320691710,16,28.5,-511.5093994140625,2.006500005722046,16,0.0,0.0,1575420030,,,,0,0.0,5,-57.45,21.5,-1451.36865234375,88.10932159423828,,,P,418469035756906
Raw,1715632518409,414784100000000,18,0.0,-1399252952309854856,0.31357383728027344,37.97822500928305,0.2970979090680981,12.883512992748459,6,42,0.0,16399,160522334408833,12,30.3,-302.64306640625,1.84250009059906,16,0.0,0.0,1575420030,,,,0,0.0,5,-57.45,23.3,-1451.36865234375,88.10932159423828,,,P,418469035756906
Raw,1715632518409,414784100000000,18,0.0,-1399252952309854856,0.31357383728027344,37.97822500928305,0.2970979090680981,12.883512992748459,6,45,0.0,16399,160522330784892,10,32.3,427.3198547363281,1.8333864212036133,16,0.0,0.0,1575420030,,,,0,0.0,5,-57.45,25.299999999999997,-1451.36865234375,88.10932159423828,,,P,418469035756906
Fix,GPS,32.1204546000,35.0461662600,210.38427734375,0.0,10.188699,,1715632519000,0.076779686,,418469625757374,2.609326,0,,,
Fix,FLP,32.1204546000,35.0461663000,212.79998779296875,0.0000007266885,10.548,,1715632518693,0.076779686,,418469625757374,2.1338139,0,,,
Status,1715632519000,42,0,1,4,1575420030,25.90,57.0,43.0,1,1,1,20.9
Status,1715632519000,42,1,1,6,1575420030,18.30,266.0,34.0,0,1,0,13.3
Status,1715632519000,42,2,1,7,1575420030,14.60,241.0,62.0,1,1,0,9.6
Status,1715632519000,42,3,1,9,1575420030,25.40,348.0,59.0,1,1,1,20.4
Status,1715632519000,42,4,1,11,1575420030,34.00,305.0,18.0,1,1,0,29.0
Status,1715632519000,42,5,1,16,1575420030,24.80,63.0,25.0,1,1,1,19.8
Status,1715632519000,42,6,1,20,1575420030,22.70,320.0,2.0,0,1,0,17.7
Status,1715632519000,42,7,3,6,1599750020,21.10,353.0,49.0,1,1,0,16.1
Status,1715632519000,42,8,3,22,1600312450,23.00,302.0,14.0,1,1,1,18.0
Status,1715632519000,42,9,3,16,1601437440,15.10,101.0,70.0,0,1,0,10.1
Status,1715632519000,42,10,3,15,1602000000,27.00,34.0,27.0,1,1,1,22.0
Status,1715632519000,42,11,3,5,1602562560,27.00,85.0,32.0,1,1,0,22.0
Status,1715632519000,42,12,3,7,1604812540,31.80,312.0,12.0,1,1,1,26.8
Status,1715632519000,42,13,5,60,1561097980,24.20,119.0,27.0,0,1,0,19.2
Status,1715632519000,42,14,5,45,1561097980,22.90,48.0,36.0,1,1,0,17.9
Status,1715632519000,42,15,5,42,1561097980,23.60,332.0,54.0,1,1,0,18.6
Status,1715632519000,42,16,5,39,1561097980,18.00,53.0,5.0,1,1,0,13.0
Status,1715632519000,42,17,5,33,1561097980,19.20,307.0,6.0,1,1,0,14.2
Status,1715632519000,42,18,5,26,1561097980,16.30,149.0,73.0,0,1,0,11.3
Status,1715632519000,42,19,5,21,1561097980,26.50,85.0,58.0,1,1,0,21.5
Status,1715632519000,42,20,5,14,1561097980,28.70,315.0,30.0,1,1,0,23.7
Status,1715632519000,42,21,6,4,1575420030,22.50,62.0,40.0,1,1,0,17.5
Status,1715632519000,42,22,6,9,1575420030,19.30,340.0,58.0,1,1,0,14.3
Status,1715632519000,42,23,6,31,1575420030,19.20,124.0,41.0,1,1,0,14.2
Status,1715632519000,42,24,6,34,1575420030,24.00,314.0,15.0,1,1,0,19.0
Status,1715632519000,42,25,6,36,1575420030,13.60,262.0,37.0,1,1,0,8.6
Status,1715632519000,42,26,1,4,1176450050,22.90,57.0,43.0,1,1,1,17.9
Status,1715632519000,42,27,1,9,1176450050,19.70,348.0,59.0,1,1,1,14.7
Status,1715632519000,42,28,1,11,1176450050,23.30,305.0,18.0,1,1,0,18.3
Status,1715632519000,42,29,6,4,1176450050,14.10,62.0,40.0,0,1,0,9.1
Status,1715632519000,42,30,6,9,1176450050,21.20,340.0,58.0,1,1,0,16.2
Status,1715632519000,42,31,6,34,1176450050,17.50,314.0,15.0,1,1,0,12.5
Status,1715632519000,42,32,5,21,1176450050,17.60,85.0,58.0,0,1,0,12.6
Status,1715632519000,42,33,5,33,1176450050,17.30,307.0,6.0,0,1,0,12.3
Status,1715632519000,42,34,5,42,1176450050,18.90,332.0,54.0,1,1,0,13.9
Status,1715632519000,42,35,5,45,1176450050,18.70,48.0,36.0,1,1,0,13.7
Status,1715632519000,42,36,5,21,1575420030,21.00,85.0,58.0,1,1,0,16.0
Status,1715632519000,42,37,5,26,1575420030,19.70,149.0,73.0,1,1,0,14.7
Status,1715632519000,42,38,5,33,1575420030,21.50,307.0,6.0,1,1,0,16.5
Status,1715632519000,42,39,5,39,1575420030,14.50,53.0,5.0,0,1,0,9.5
Status,1715632519000,42,40,5,42,1575420030,22.50,332.0,54.0,1,1,0,17.5
Status,1715632519000,42,41,5,45,1575420030,25.30,48.0,36.0,1,1,0,20.3
Raw,1715632519409,414785100000000,18,0.0,-1399252952309854854,0.9063758850097656,40.40311978315003,0.5197687094753025,17.8363374304848,6,4,0.0,16399,160537337622736,46,30.9,251.75852966308594,0.7879999876022339,16,0.0,0.0,1575420030,,,,0,0.0,1,-54.05,25.9,0.0,0.0,,,C,418470026324041
Raw,1715632519409,414785100000000,18,0.0,-1399252952309854854,0.9063758850097656,40.40311978315003,0.5197687094753025,17.8363374304848,6,9,0.0,16399,160537340668321,46,30.4,-93.7291488647461,0.8134999871253967,16,0.0,0.0,1575420030,,,,0,0.0,1,-54.05,25.4,0.0,0.0,,,C,418470026324041
Raw,1715632519409,414785100000000,18,0.0,-1399252952309854854,0.9063758850097656,40.40311978315003,0.5197687094753025,17.8363374304848,6,11,0.0,16399,160537329787266,16,39.0,-230.17633056640625,4.040572643280029,16,0.0,0.0,1575420030,,,,0,0.0,1,-54.05,34.0,0.0,0.0,,,C,418470026324041
Raw,1715632519409,414785100000000,18,0.0,-1399252952309854854,0.9063758850097656,40.40311978315003,0.5197687094753025,17.8363374304848,6,16,0.0,16399,160537333468641,53,29.8,177.12535095214844,0.8539999723434448,16,0.0,0.0,1575420030,,,,0,0.0,1,-54.05,24.8,0.0,0.0,,,C,418470026324041
Raw,1715632519409,414785100000000,18,0.0,-1399252952309854854,0.9063758850097656,40.40311978315003,0.5197687094753025,17.8363374304848,6,22,0.0,49359,84919332537133,61,27.0,71.1212387084961,1.005500078201294,16,0.0,0.0,1600312450,,,,0,0.0,3,-56.02,23.0,3802.780029296875,21.760046005249023,,,C,418470026324041
Raw,1715632519409,414785100000000,18,0.0,-1399252952309854854,0.9063758850097656,40.40311978315003,0.5197687094753025,17.8363374304848,6,16,0.0,49359,84919345020156,181,19.1,-79.69193267822266,10.064001083374023,16,0.0,0.0,1601437440,,,,0,0.0,3,-56.02,15.100000000000001,3802.780029296875,21.760046005249023,,,C,418470026324041
Raw,1715632519409,414785100000000,18,0.0,-1399252952309854854,0.9063758850097656,40.40311978315003,0.5197687094753025,17.8363374304848,6,15,0.0,49359,84919336734639,35,31.0,619.2529907226562,0.7294999957084656,16,0.0,0.0,1602000000,,,,0,0.0,3,-56.02,27.0,3802.780029296875,21.760046005249023,,,C,418470026324041
Raw,1715632519409,414785100000000,18,0.0,-1399252952309854854,0.9063758850097656,40.40311978315003,0.5197687094753025,17.8363374304848,6,5,0.0,49359,84919338305038,35,31.0,287.4060363769531,0.7264999747276306,16,0.0,0.0,1602562560,,,,0,0.0,3,-56.02,27.0,3802.780029296875,21.760046005249023,,,C,418470026324041
Raw,1715632519409,414785100000000,18,0.0,-1399252952309854854,0.9063758850097656,40.40311978315003,0.5197687094753025,17.8363374304848,6,7,0.0,49359,84919331883886,21,35.8,-545.3684692382812,0.5370000004768372,16,0.0,0.0,1604812540,,,,0,0.0,3,-56.02,31.799999999999997,3802.780029296875,21.760046005249023,,,C,418470026324041
Raw,1715632519409,414785100000000,18,0.0,-1399252952309854854,0.9063758850097656,40.40311978315003,0.5197687094753025,17.8363374304848,6,45,0.0,16399,160523330783526,70,27.2,423.2358703613281,1.0084999799728394,16,0.0,0.0,1561097980,,,,0,0.0,5,-61.93,22.9,-1527.4566650390625,17.017959594726562,,,I,418470026324041
